business_id,name,address,city,state,postal_code,latitude,longitude,stars,review_count,is_open
xPWfBAXS1s5fw2Qcb8xX7g,Luciana's Mexican Restaurant and Cantina,3716 E 82nd St,Indianapolis,IN,46240,39.9100708,-86.103308,3.5,216,1
evxhNYa77dxWZabIpGQCkg,Haru,"5210 Longley Ln, Ste 500",Reno,NV,89511,39.4762963749,-119.7633539513,4.0,202,1
Zdw5rbtAWguwcT9h_X4xRA,Johnson's Corner Farm,133 Church Rd,Medford,NJ,08055,39.9195601963,-74.8512280603,3.5,169,1
_iHV--nOdqTMbINQtMehzQ,Char's Thai,5039 E 5th St,Tucson,AZ,85711,32.2291367,-110.8848483,3.5,209,1
Ghn6flCdNlOchzLA29tkjQ,Basso,7036 Clayton Ave,Saint Louis,MO,63117,38.6332291902,-90.306749048,4.0,463,1
kpmGHDhrCd2Ps7HCEO162w,Georgine's Restaurant,1320 Newport Rd,Bristol,PA,19007,40.104601,-74.890871,3.0,131,1
MxRZHZoDVVnN7EvMAHf1EA,Fleming’s Prime Steakhouse & Wine Bar,4322 W Boy Scout Blvd,Tampa,FL,33607,27.9621936621,-82.5159262215,4.0,502,1
xmRuCnMaXldWXkYnlCo-fg,Rolled Mountain Creamery,"7400 Rancharrah, Ste170",Reno,NV,89511,39.4679745824,-119.7936632833,4.5,110,1
67gnSHwFRKgtXlzHzuyGMQ,Feast,3719 E Speedway Blvd,Tucson,AZ,85716,32.2364311121,-110.9133633356,4.0,468,1
RRIJlZUVvz2CkMrDn2UziQ,El Merkury,2104 Chestnut St,Philadelphia,PA,19103,39.952185,-75.1758693,4.5,162,1
ziMvN9iVXWQJrBtzcEONMg,Philly Pretzel Factory,1532 Sansom St,Philadelphia,PA,19102,39.950452,-75.1670215,4.0,117,1
1VnjvQKmWNY9uzJwLAmX1Q,King Siam Thai Cuisine,907 12th Ave S,Nashville,TN,37203,36.1468067,-86.78613,5.0,126,1
0a9Miij7BFmKm83Iqni5sA,Capital Tacos,"27209 State Rd 56, Fl 56",Wesley Chapel,FL,33545,28.1866293218,-82.3661844841,4.0,754,1
NxyWNRXB3O-aBQQLx1ckrA,Chipotle Mexican Grill,2576 E Fowler Ave,Tampa,FL,33612,28.0548732792,-82.429812,2.5,161,1
cXSyVvOr9YRN9diDkaWs0Q,Honey's Sit-N-Eat,800 N 4th St,Philadelphia,PA,19123,39.96399,-75.1444822,4.0,1396,1
nSHq493WltUlr9cFfS-YJQ,Beholder,1844 E 10th St,Indianapolis,IN,46201,39.7816033,-86.126861,4.0,161,1
j_6LvHUJlu-wI5bJUDgMtA,Tin Roof Tacos,1750 W McMillan Dr,Meridian,ID,83646,43.6487784177,-116.4151289748,3.5,147,1
m5-FtgWRd4qA7j0vaOXiXQ,Preservation Hall,726 Saint Peter St,New Orleans,LA,70116,29.9583052183,-90.0654261542,4.5,745,1
CUsM2ZJAMUkUsf5-G7Js7Q,Clayton Nail Spa,7933 Clayton Rd,Clayton,MO,63117,38.6378927,-90.3411711,4.0,359,1
F2C5ENuY8CXfgoW-gAMdDA,Revolucion,1132 Prospect St,Indianapolis,IN,46203,39.7524474,-86.1386729,3.5,456,1
vVfy055EfLMdd0yJYHxiMQ,A La Mousse,145 N 11th St,Philadelphia,PA,19107,39.9552167,-75.1574268,4.5,691,1
r3pPMlv9uNML46kYhgz1tQ,Lilly's Nails & Spa,1817 Magazine St,New Orleans,LA,70130,29.9321273449,-90.0734630978,4.5,264,1
eShigU7-QNh0iyLA41D_-w,The Flying Cupcake Bakery,1134 E 54th St,Indianapolis,IN,46208,39.8514026471,-86.1385013082,3.5,133,1
-dVBeSZxtxpHQ3XdL4E4bQ,The Phils Tavern,931 Butler Pike,Blue Bell,PA,19422,40.138646,-75.244957,3.5,157,1
JvawJ9bSr22xn4R9oLvl_w,Desire Oyster Bar,300 Bourbon St,New Orleans,LA,70130,29.9555269925,-90.0681538393,4.0,1084,1
JjYmXia9-Dy0tGqI088Hfg,La Cabra Brewing,642 Lancaster Ave,Berwyn,PA,19312,40.0476220049,-75.4415199906,4.5,171,1
rNxrlRBeMYsIZiGBJCnNaQ,Umami Asian Bistro and Sushi Bar,150 Eagleview Blvd,Exton,PA,19341,40.0496283035,-75.6641458219,3.5,130,1
kqRnm-AL4uoXNg4V15n10g,B-Unos,350 High St,Burlington,NJ,08016,40.078056,-74.85848,4.0,121,1
NCKTDyUdN2UkVEPKWIwdSA,AMC Dine-In Painters Crossing 9,112 Wilmington Pike,West Chester,PA,19382,39.8828386386,-75.5502015075,2.5,200,1
kiA1mrC2ZVoRmpsWgAT7ow,Hippot Shabu Shabu,1002 Arch St,Philadelphia,PA,19107,39.953486,-75.156575,3.5,302,1
6gH1VR1YwBBOg8nUCPki2Q,Pioneer,1110 Shelby St,Indianapolis,IN,46203,39.751905,-86.139997,4.0,198,0
1l4-uhraQzNiRjppKyMUUQ,Jeannine's American Bakery Restaurant,"7060 Hollister Ave, Ste 105",Goleta,CA,93117,34.431189,-119.8740625,4.5,117,1
yw3vRR7XLIjEnlhMnVzR7w,Kai Sushi Shabu-Shabu,738 State St,Santa Barbara,CA,93101,34.419763,-119.6989834,2.5,240,1
h4lW8utlD_aXFo-5LDY7cg,Portillo's Hot Dogs,8150 Us-31,Indianapolis,IN,46227,39.6484489309,-86.1364556614,3.5,164,1
CuyQt_cUFS1i738GXTNciw,Effie's Restaurant,1127 Pine St,Philadelphia,PA,19107,39.9451062,-75.1606111,3.5,315,1
IRMRvgD4uL4zTguZonV-uQ,Mi Nail Salon,3865 E 82nd St,Indianapolis,IN,46240,39.907885,-86.100298,4.5,259,1
6rOZ16N6YlpLC9_7fDnMLw,Zoes Kitchen,1200 Haddonfield Rd,Cherry Hill,NJ,08002,39.9205559,-75.0332966,4.5,150,1
Bq0CQcwk5R8yhm-MGfHxCA,Chef Alisah's,5931 N Oracle Rd,Tucson,AZ,85704,32.314993,-110.977809,4.5,479,1
4fUok5d5vgdQEb1Bzzg0rA,Olive Garden Italian Restaurant,1315 W Esplanade Ave,Kenner,LA,70065,30.0200051249,-90.2493493809,3.5,115,1
HGWOGjd6azyrdf0Ovnp9OA,New Orleans Hamburger & Seafood Co,6920 Veterans Memorl Blvd,Metairie,LA,70003,30.0045841087,-90.2179056175,3.5,105,1
xSn2d1RTvK7e4KM0bI2NLg,Nachomamas Tex-Mex,9643 Manchester Rd,Saint Louis,MO,63105,38.6087681,-90.3684727,3.0,301,1
QeqIUnIchD2evwHCUSTEww,Hanabi Japanese Restaurant,"214 Ward Cir, Ste 700",Brentwood,TN,37027,36.031314,-86.8024729,4.0,151,0
MwCs34rji1d4lZ58xzzvrQ,Okinii Modern Japanese,3818 W Lincoln Hwy,Downingtown,PA,19335,39.9959557005,-75.7440490212,4.0,133,1
w9WLlcY_mziJ6qAB6WtpsA,The Flying V Bar & Grill,7000 N Resort Dr,Tucson,AZ,85750,32.327823,-110.850591,4.0,152,1
L4aVo136aPLwxQHSM0vz7A,Florida Botanical Gardens,12520 Ulmerton Rd,Largo,FL,33774,27.8805833016,-82.8061604301,4.5,103,1
wIWeB5ip5W4fk1Dm0Zp79g,Tohono Chul Park,7366 N Paseo Del Norte,Tucson,AZ,85704,32.3386754429,-110.9821422133,4.5,113,1
MsgWKX-hUG35a0nLcCAKrg,Currito,"8500 Essington Ave, Philadelphia International Airport, Terminal A",Philadelphia,PA,19153,39.874423,-75.247136,3.5,125,1
z6f17I5oH2xIq43h6US0AQ,Lamothe House Hotel,621 Esplanade Ave,New Orleans,LA,70116,29.9632674,-90.0592591,4.0,102,1
6AGpQJdTQmbzx7c2-D0vsQ,Hop House Southern Eatery,1214 Central Park Dr,O'Fallon,IL,62269,38.5766527,-89.9338716,4.0,407,1
UkBmK4Icaximp2DY2Zf_iw,Crabby Cafe and Sports Bar,"1050 N Hancock St, Unit 1",Philadelphia,PA,19123,39.9664438,-75.139576,3.0,151,0
l9bEzlgRhvuGYJOGz7WZ2Q,Bar Louie - Streets of St. Charles,"1650 Beale St, Ste 180",Saint Charles,MO,63303,38.7659338275,-90.49381077,3.5,302,1
lTlii3QHEVvsagPGsCtu9w,Han Dynasty,260 N Pottstown Pike,Exton,PA,19341,40.0343489805,-75.6338210589,3.5,301,1
yXX7xmclZkuBif-7QoyCuw,Pho Eden,1900 Greentree Rd,Cherry Hill,NJ,08003,39.9060517,-74.9648058,4.0,166,1
QFzJKnSUtkgSs1lKOOxXeA,Academy of Natural Sciences,1900 Benjamin Franklin Pkwy,Philadelphia,PA,19103,39.957018627,-75.1712603922,4.0,131,1
UK007MpAU5B6P4o7_dVsTA,"Between the Bun - Burgers, Dogs and More","2222 W Southport Rd, Ste A",Indianapolis,IN,46217,39.664831,-86.198267,4.0,257,1
ljbmEIJs2Ta1yGxt18YuhQ,Best Western Plus South Coast Inn,5620 Calle Real,Goleta,CA,93117,34.4419415662,-119.8201022858,3.5,129,1
Oc7XxUdoi1l4SCV-BLOSTw,Gerhard's Appliance Warehouse Sale,270 New Jersey Dr,Fort Washington,PA,19034,40.139597,-75.1971358715,1.5,126,0
mf1udZPfiikBAND9upDdoQ,Bam Bam Kitchen,31 E Lancaster Ave,Ardmore,PA,19003,40.0075398799,-75.2897699922,4.5,126,1
cFoUuE6thjn88cVCTqYBHw,Johnny's Italian Restaurant,"2907 State Road 590, Ste 1",Clearwater,FL,33759,27.9822,-82.7167155,3.5,218,1
HqgMCVe-jvlP0kT93M_5Sg,Crispy Cajun,2097 Drew St,Clearwater,FL,33765,27.9676007,-82.7508542,4.0,317,1
u4SoM_ljOMxmuQ8GIr1m8A,Dosa Hut & Chaat House,2864 Ridge Pike,Norristown,PA,19403,40.1496675,-75.3975398,3.5,147,0
b7UPlhqUiliUy9vITKHGvQ,The Wayfarer,12 E Montecito St,Santa Barbara,CA,93101,34.4150289,-119.69232,4.0,141,0
yqiN-9RQ8yrnVI9IPmYVNw,New Orleans Marriott Metairie at Lakeway,"3838 N Causeway Blvd, Ste 100",Metairie,LA,70002,30.0183086,-90.1555699,3.0,102,1
HSv0Pe45yPAs6PgwlcTPcg,Dog and Bull,810 Bristol Pike,Croydon,PA,19021,40.0940274,-74.9063704,4.0,406,1
0kdx-VVbjY7Jvlvgs6nGUA,54th Street Grill & Bar,2895 Hwy 67,Florissant,MO,63033,38.8085928,-90.3011658,2.5,100,0
HE-9l_2RSingLV2RZItdsA,Anna's Marketplace Bakery,7018 Marketplace Dr,Goleta,CA,93117,34.4294598,-119.8721309,4.0,204,1
_RwlMTw9uFeOkfX9Ctf1HA,Dinardo's Famous Crabs,312 Race St,Philadelphia,PA,19106,39.9540048,-75.1454969,2.5,256,0
j8YIaLJ5TnVjtPApaZeyjA,Think Pink Nail & Spa,"1650 Beale St, Ste 169",Saint Charles,MO,63303,38.7658108157,-90.4939815428,3.5,156,1
C4mWzmxdWDtYR0tFRVGOPA,The Legend Classic Irvington Cafe,5614 E Washington St,Indianapolis,IN,46219,39.7709474,-86.0715593,4.5,234,0
2R3VHZy6yys7iS8SuSMbbQ,Mellow Mushroom,3131 Veterans Memorial Blvd,Metairie,LA,70002,30.00398,-90.153995,3.5,151,0
x063XOQJCfTsKvS7iPLSsQ,Another Broken Egg Cafe,2917 Magazine St,New Orleans,LA,70115,29.925415,-90.084253,3.5,408,1
tB971SQcyzBs-nqZl1_PjQ,Bottega Michelangelo,420 W Magee Rd,Tucson,AZ,85704,32.3523611,-110.9764168,4.0,391,1
nygJ4mY0glpdWGv_Hmp6Dg,Joe's Crab Shack,123 2nd Ave S,Nashville,TN,37201,36.1609473485,-86.7748649418,3.0,192,1
DB8YfpBxsPlxDcNhfTKOWA,Blue Nail & Spa,2107 Walnut St,Philadelphia,PA,19103,39.9508436,-75.176231,4.0,227,1
jz_ju6uhi7_2T8IjCSk8dw,Charred Pie,"12125 N Oracle Rd, Ste 105",Oro Valley,AZ,85737,32.425584,-110.938092,4.0,164,1
pdh91rffpM9QptHSXjJFVQ,Viet Kitchen,3698 W Waters Ave,Tampa,FL,33614,28.0247456,-82.5034875,4.5,109,1
mnwTbHyIgpMvOG9705zqWA,Country Music Hall of Fame and Museum,222 Rep. John Lewis Way S,Nashville,TN,37203,36.158266,-86.776126,4.0,662,1
YRw8RmnSc1olsEFTf5H6Eg,The Dog House and More,106 N US Hwy 41,Ruskin,FL,33570,27.720091,-82.4346489,4.5,133,1
Wk21f0DAM7uj3DaJ_rMI-Q,Brunchies - Lutz,24400 State Rd 54,Lutz,FL,33559,28.1853891799,-82.4130005556,4.0,272,1
LdK6Tqr9-QK8eNezCUes9A,Mel's Kitchen,5001 Umbria St,Philadelphia,PA,19128,40.0359954,-75.2359063583,4.5,206,0
bsUZVF1WNrrwXvkAhoKRaQ,The Rutledge,105 International Dr,Franklin,TN,37067,35.955868,-86.8046398698,3.5,157,1
vhWlxyLEWAbNOMtQ42yzFg,Norton's Pastrami & Deli,18 W Figueroa St,Santa Barbara,CA,93101,34.4219915,-119.7038202,4.5,492,1
yk5S9Lrs0EUHUKxujlGEAA,Quarter Grocery & Deli,836 Burgundy St,New Orleans,LA,70116,29.961314,-90.0659809,4.5,108,1
E6HHiJMCpTkjOsSly3kzeA,The Imperial,320 S Kellogg Ave,Goleta,CA,93117,34.434748538,-119.8197529045,4.5,128,1
geUiM_VTRmUz6dViO7E-jg,Brixx Wood Fired Pizza,8594 E 116th St,Fishers,IN,46038,39.9570402367,-86.0173780878,4.0,193,0
Eto7duDaxGiOvtakWiGEqg,Gyro Shack,6871 W Overland Rd,Boise,ID,83709,43.5897352,-116.2669542,4.0,170,1
B1OjiK9Bx5t_mIm9I6mZ-Q,Pho Kien Giang,8730 49th St N,Pinellas Park,FL,33782,27.8518584,-82.7006277,4.5,407,1
UApicJDoDgayR1N1ZLL3vw,Nicki's Omelette & Grill,6805 W Hillsborough Ave,Tampa,FL,33634,27.9968321,-82.5550403,4.0,415,1
j2580WwGiOO7IUlY7jOyRQ,Freddy Hill Farms,1440 Sumneytown Pike,Lansdale,PA,19446,40.236936,-75.3276893,3.5,135,1
8kh6Z3c8UHQKmsy0_TbOnA,Carmo,527 Julia St,New Orleans,LA,70130,29.9455561516,-90.0699020516,4.5,1164,1
S8obO75HdAxvT0QPAMFqwg,A Full Plate,1009 N Bodine St,Philadelphia,PA,19123,39.9674013268,-75.14140052,3.5,135,0
i_ebZdLk-SePyN6VQYdL-g,Fattoush,182 Lancaster Ave,Malvern,PA,19355,40.0408405,-75.5385422,4.5,254,1
LiH_a3ZxwxKACzrYbzXXQQ,Maple Glen Pizza,641 E Welsh Rd,Maple Glen,PA,19002,40.1795729,-75.1818139,3.0,111,1
LRr-aw58xVMkUu0OSL_BpQ,The Little One,151 N Stone Ave,Tucson,AZ,85701,32.2241254,-110.9718282,4.5,347,1
ZM9EQa_wvrcwTwS_E5giMw,Mount Everest Momo Cafe,2144 S Broadway Ave,Boise,ID,83706,43.5848767,-116.1934959,4.5,269,1
sAVZbkhmIt0Am-iPJcFzig,Holliday Park,6363 Spring Mill Rd,Indianapolis,IN,46260,39.871962,-86.164927,4.5,116,1
WtH2z1TlxLgh5mZrGQnkuw,M.L.Rose Craft Beer & Burgers - Capitol View,431 11th Ave N,Nashville,TN,37203,36.163019,-86.7914489,4.0,116,1
n9FawYfi8T0Rou6mVuaigQ,Gina's Stonefired Italian & Pizzeria,"3046 Columbia Ave, Ste 118",Franklin,TN,37064,35.8936662506,-86.8787767719,4.0,132,1
-cEFKAznWmI0cledNOIQ7w,Gran Caffe L'Aquila,1716 Chestnut St,Philadelphia,PA,19103,39.9512789,-75.1695181,4.5,1138,1
wXUg9bsJ9b4PS4pie8GVIA,First Watch,"10565 N Oracle Rd, Ste 103",Oro Valley,AZ,85737,32.39786,-110.958336,4.0,246,1
Hi4AgS-uR-lEOF4oZl546g,China Pasta House,430 N Park Ave,Tucson,AZ,85719,32.227359,-110.9560773,4.0,219,1
MMvNlr5F6NZ68wAokp70sA,Granite City Food & Brewery,150 W. 96th St.,Carmel,IN,46290,39.927189,-86.160537,3.0,246,0
9h0i4lVC5eCVhRTanWsEAg,Le Cafe Stella,3302 Mc Caw Ave,Santa Barbara,CA,93105,34.4385383,-119.7351631,3.5,263,1
-JAwNIEJoDXmdE_8sS_BJQ,Scotty's Brewhouse,4530 Southport Crossing Dr,Indianapolis,IN,46237,39.6636726,-86.0907882,3.0,118,0
sr-5EY6bmp4jINhea06MjA,The Cake Bake Shop by Gwendolyn Rogers-Broad Ripple Village,6515 Carrollton Ave,Indianapolis,IN,46220,39.8739995,-86.1444306,4.0,996,1
0yEl45kZ8o37lvpkhCBM4w,Monkey Board,"1111 Gravier St, Fl 17",New Orleans,LA,70112,29.9533897,-90.0744212,3.5,173,1
OiAFbmA3PGCgNBzCjiwXkg,Rock Brothers Brewing,1901 N 15th St,Tampa,FL,33605,27.9611699,-82.4427741,4.5,104,1
2PeuTPjcC5jEyrMt9o-w7w,Piccione Pastry,1414 Park Ave,St. Louis,MO,63104,38.6153518,-90.2073954,4.5,267,0
mEam9yl2KQs0ebKgj3mPZw,Panache Woodfire Grill,602 Skippack Pike,Blue Bell,PA,19422,40.1524837551,-75.2657691465,2.5,333,1
uF2HWZ3tTq91ZYdpwTWEzw,Evo Brickoven Pizza,277 W Mt Pleasant Ave,Philadelphia,PA,19119,40.0546098,-75.1939698,4.0,172,1
ESgGX4_yw6pnVVQA-oyHsg,Little Thai Market,51 N 12th St,Philadelphia,PA,19107,39.9531593,-75.1590984,4.0,189,1
JXnatL1ALEIL-0JZbDitbw,Bistro 7,7 N 3rd St,Philadelphia,PA,19106,39.9505744,-75.1454639,3.5,108,0
9datL-qMsIdhMHb3apzqeA,Hibachi Japanese Steak House & Sushi Bar,145-147 S State Rd,Springfield,PA,19064,39.9378007,-75.3494646,3.0,101,1
5dIS6fNq-t5tdj5X56rTzg,Kosmo Pizza & Grille,"1347 S St, Ste 4",Philadelphia,PA,19147,39.9437308043,-75.1647151245,4.5,162,0
W1MS8p3I6UQUL-5K2dZkPw,Jaffron Indian Restaurant,11B W Bridge St,New Hope,PA,18938,40.3641621,-74.9523337865,4.0,174,1
19wx431VQzIHTz3DcDy2pw,Leah's Pralines,714 St Louis St,New Orleans,LA,70130,29.9565412,-90.0666099,4.5,172,1
GTNh2Jx56qE5kJSOVZxZlg,Cigar City Brewing,4100 George J Bean Pkwy,Tampa,FL,33607,27.976725964,-82.5377468,3.0,164,1
um2W1Gi4-zR7e17t5pZ_Pg,Nashville Street Tacos,129 2nd Ave N,Nashville,TN,37201,36.1626250764,-86.7758470774,3.5,103,0
sJmqrVw2Q8g2UcCu7LY7TA,Joia Fabulous Pizza & Martini Bar,10475 Gibsonton Dr,Riverview,FL,33578,27.8547046,-82.3281056,3.5,180,1
K-xbMAQYJKC5HlpvC0lnDg,The District Coffee House,219 N 10th St,Boise,ID,83702,43.6182542,-116.2047332,4.5,184,1
w6CL1Ro5rLWqrs6Ku0gh7A,Split Rail Tavern,15 N Walnut St,West Chester,PA,19380,39.9608184,-75.6034634,4.0,200,1
3Sxj2NQ-2Gr06qoax1R-Kw,Takara Sushi & Sake Lounge,14913 Bruce B Downs Blvd,Tampa,FL,33613,28.082762,-82.412285,4.0,158,0
Xat8Yhqly9GdM7kYcfQJyA,First Watch,"775 East Lancaster Ave, Ste 140",Villanova,PA,19085,40.036961,-75.351712,3.5,152,1
EM0jUQn-SEnttG8hf-Eq6A,Bardenay Restaurant & Distillery - Eagle,155 E Riverside St,Eagle,ID,83616,43.686635,-116.352242,4.0,351,1
vyyr3G874jpRYSQo2KPZow,Cristino's Bakery,170 Aero Camino,Goleta,CA,93117,34.432215,-119.8481,5.0,117,1
derKTThMWqGXsl2ZFVv5Lg,Fat Dan's Deli Carmel,840 W Main St,Carmel,IN,46032,39.9785639603,-86.1424100701,3.5,111,1
qkMMO794-59404bUiJ1Odg,Central Table,23 S Euclid Ave,Saint Louis,MO,63108,38.6396437,-90.2625462,3.0,174,0
Yh_KhyVD6ZBwsIQQ1wSUpw,Pho An Hoa Restaurant,2730 W Waters Ave,Tampa,FL,33614,28.0250188,-82.4881568,4.0,160,1
iaBU5h_j0TCrUFzTbjFIlw,Laser Remedy MedSpa,163 W Girard Ave,Philadelphia,PA,19123,39.9695465,-75.1386445,4.5,151,1
y1ZPi7c6sSkWdE1p2vUo-Q,PizzaRev,12 W. De La Guerra St,Santa Barbara,CA,93101,34.4192413388,-119.6999922914,4.0,142,0
WB-eQAgw88fbr15eY761CA,Osteria Natalina,3215 S MacDill Ave,Tampa,FL,33629,27.916779,-82.494288,4.5,400,1
c7ZxVUJVjEOe9hLhvKGnDA,Noble Rice,807 W Platt St,Tampa,FL,33606,27.9418113,-82.4681587528,4.0,218,0
Fe9WDVsrEM9H0X_aFDuYVA,Herbie's Restaurant,8100 Maryland Ave,Clayton,MO,63105,38.6517233201,-90.3414325043,3.5,169,1
hgbSjUZ9J4yauE_v6nuIyg,Locavore,3110 S Bown Way,Boise,ID,83706,43.5739231,-116.1548354,3.5,134,1
-09Oc2D14vRnmirPh0vlXw,Cracker Barrel Old Country Store,110 Hancock Ln,Mount Holly,NJ,08060,40.02844,-74.81503,3.0,135,1
mmIF5p4HqyrKSs805mm1lA,Trader Joe's,3909 Hillsboro Pike,Nashville,TN,37215,36.1050835,-86.815626,4.5,224,1
Eqfks4GEn5dsI4ZGiPrCVQ,Vivace,6440 N Campbell Ave,Tucson,AZ,85718,32.324063,-110.927315,4.0,557,1
I3_iREO5YfeuuO2CkeHc9g,The 5 Spot,1006 Forrest Ave,Nashville,TN,37206,36.1783909,-86.7503849,4.0,136,1
R_u4QTal0d5f-FHr7BUXcw,Smoking Barrels BBQ - St. Louis,5641 S Kingshighway Blvd,St. Louis,MO,63109,38.5786660098,-90.2823078632,4.0,295,1
9ocQBw69M6V3N9LUafw2dg,Five Daughters Bakery 12south,1110 Caruthers Ave,Nashville,TN,37204,36.1258702943,-86.7887662943,4.5,932,1
g1y0pKT3L80JNjvobavoeg,Late Harvest Kitchen,8605 River Crossing Blvd,Indianapolis,IN,46240,39.9127567252,-86.104538833,4.5,294,1
jRsUJuvs1zLr9Z5krpZMgQ,Zinburger Wine and Burger Bar,Haddonfield Rd,Cherry Hill,NJ,08002,39.9370629,-75.0303005,3.5,472,0
x39G7-aTCVh-972fgogKtA,Old City Coffee,221 Church St,Philadelphia,PA,19106,39.95079,-75.144829,4.0,239,1
B4CTKkHbmbQAcnYlQlo18Q,Louis Vuitton King of Prussia,"3008 Mall Blvd Space, Spc 3008",King Of Prussia,PA,19406,40.0878104794,-75.390402,2.5,107,1
r3dO-D1qFn4Jct7KDNvImg,LOMA Coffee,239 N Market St,Wilmington,DE,19801,39.7397884,-75.5519119,4.5,143,0
q7mKAD93-EeSpeOa9Hu4BQ,Sakana Sushi Bar & Japanese Restaurant,7655 Town Square Ln,Reno,NV,89523,39.531853,-119.91288,4.0,302,1
Tx9kwNLX2lYNqr2weKWEqg,BrushFire BBQ,2745 N Campbell Ave,Tucson,AZ,85719,32.256952,-110.944299,3.5,396,1
EsV50Yt0y2y5PDYfTzmGCA,Whatever Pops,5127 N Florida Ave,Tampa,FL,33603,27.993552,-82.459279,4.5,126,1
W7gSJz80DywKnPRIGjA2Bw,Derf's Cafe,2000 De La Vina St,Santa Barbara,CA,93105,34.428957,-119.7169716,3.5,126,1
ysWG1Hwm21UWCSlc_frXBg,Bonefish Grill,1640 Bruce B Downs Blvd,Wesley Chapel,FL,33544,28.1819841166,-82.3529035308,3.5,238,1
a_oRfgkNFnulTada--P_Tg,Sonoran Brunch Company,1060 S Kolb Rd,Tucson,AZ,85710,32.2080034551,-110.8415143936,4.5,163,1
KGvGSfvlWzurRu247ckEPw,Four Points by Sheraton Philadelphia City Center,1201 Race St,Philadelphia,PA,19107,39.9560366,-75.1591784,3.0,126,1
zgdGeg4L13C2Rbm4UARtHw,Island Sushi & Ramen,8716 W Fairview Ave,Boise,ID,83704,43.619719,-116.290423,4.5,313,1
8D-aWgw0Uu2oh4bOJY5QUw,Beef 'O' Brady's,"1505 S Eagle Rd, Ste 190",Meridian,ID,83642,43.5914563,-116.3562988,3.0,137,1
m4kvY0viCwxqRtgOycnKVQ,Mony's Mexican Food,217 E Anacapa St,Santa Barbara,CA,93101,34.4154904354,-119.691116675,4.5,768,1
grpNey31cTGKrhmQQaNGdA,Santa Fe Hotel,235 N Lake St,Reno,NV,89501,39.52844,-119.811255,4.0,116,0
03dIEDBsDERr6Osmey-udQ,Steelbach at Armature Works,1910 N Ola Ave,Tampa,FL,33602,27.9611064,-82.4640636,4.0,727,1
MoVb_mFKTG2fkaH0-9hODQ,Hilton Tampa Airport Westshore,2225 N Lois Ave,Tampa,FL,33607,27.962472595,-82.512730211,3.0,114,1
Eftz2lg1b9Hb1UHpxF1Edw,Cafe Masaryktown,398 Broad St,Masaryktown,FL,34604,28.4416363,-82.4571451,4.5,105,1
eoMVY8MLh0pXHIW2zt5I8Q,Korean Barbie Q,150 N Arlington Ave,Reno,NV,89501,39.5256362,-119.816768,3.5,168,0
RW3nH6Au6pSCWxJhiGY03Q,Big Eye Raw Bar,"38 W Victoria St, Ste 119",Santa Barbara,CA,93101,34.4238049274,-119.7072728554,4.0,106,0
SNWcFlaW9QODO3YO07Toqw,Rina's Eyebrow Threading,10043 West Hillsborough Ave,Tampa,FL,33615,28.003859038,-82.5974165574,5.0,109,1
KOfgkk4O91DV320HhonBEw,Cracker Barrel Old Country Store,3611 Horizon Blvd,Trevose,PA,19053,40.1368,-74.96352,3.5,133,1
pqmpsRtNxntXcCfkExPvmA,Pennhurst  Asylum,250 Service Rd,Spring City,PA,19475,40.1926073,-75.5703797,3.0,196,1
USleU89txaknVADlMhUtnQ,SquareBurger,200 N 6th St,Philadelphia,PA,19106,39.9557003985,-75.1501474668,3.0,118,1
FJlYldo1NcoyKMG2YKWywA,MD Oriental Market,1106 E Fowler Ave,Tampa,FL,33612,28.055973,-82.447271,4.0,122,1
yxQs5gSf0-8cEd6YMgSjbw,Chili's,175 E City Ave,Bala Cynwyd,PA,19004,40.004238,-75.221245,2.0,140,1
UZCe8bfQdU38wXzURA0RfA,Pei Wei,"101 Creekside Crossing, Ste 1800",Brentwood,TN,37027,36.03685501,-86.79900096,2.5,115,1
cEN8j6jL0OJ0zhe-AX58Hw,McConnell's Fine Ice Creams,"120 State St, Ste B, The Funk Zone",Santa Barbara,CA,93101,34.413582,-119.691057,4.5,156,1
rR2mWg0ybsUe5smIedz4Gg,Marriott St. Louis Grand,800 Washington Ave,Saint Louis,MO,63101,38.6303999,-90.1919974,3.0,279,1
Izml8vnd3ndJ__ocSu37Vg,Phi Vietnamese,4369 W Swamp Rd,Doylestown,PA,18902,40.333348,-75.13288,4.0,123,1
glqhlr3vcINNstyYRQGliA,Guggman Haus Brewing Co,1701 Gent Ave,Indianapolis,IN,46202,39.7905571268,-86.1824292423,5.0,101,1
FazSucP2EYf7DxOwyfHLHA,Tin Roof,"36 S Pennsylvania St, Ste 190",Indianapolis,IN,46204,39.7657809641,-86.1565473676,3.0,136,1
h_n6WExuyzPM5l8qOsrLOg,BMW of Tucson,855 W Wetmore Rd,Tucson,AZ,85705,32.285485339,-110.9860116411,3.5,134,1
crlk8kaurC4zrPUTt7BevQ,Chubbies Hamburgers,2908 De La Vina St,Santa Barbara,CA,93105,34.4376929,-119.7269265,4.0,143,1
7WZ5EGb-Xk_uxQTWc52P4w,Tom Jones Family Restaurant,4417 Edgmont Ave,Brookhaven,PA,19015,39.8743053,-75.3912868,3.5,106,1
0a1KouvHD546FJ27sfW8SA,Ristorante Toscana,1990 Rt 70 E,Cherry Hill,NJ,08003,39.8998050642,-74.953078901,3.5,159,1
0QSxyOzXwDdaSbeK7p3GYw,Keystone Sports Review,5602 N Keystone Ave,Indianapolis,IN,46220,39.8552755,-86.1224972,4.0,258,1
Ri2S4YEre3xTmWUCO2XEGQ,Popeyes Louisiana Kitchen,10551 Big Bend Rd,Riverview,FL,33579,27.791584,-82.3335235288,1.5,106,1
09yJ9otVHkiousXb9MEb4Q,The Reef Bar and Grill,14705 Gulf Blvd,Madeira Beach,FL,33708,27.7979636301,-82.7973954007,3.5,144,1
e0DU7_0mfalr-lnyUafiag,Via Vai Trattoria Pizzeria,"1483 E Valley Rd, Ste 20",Montecito,CA,93108,34.4364174048,-119.6330971612,3.5,147,1
7JFH17VaAsbyRsMrvKsRFQ,Red Door Saloon,1816 Division St,Nashville,TN,37203,36.150663,-86.7958844,3.0,188,1
5oRPyWYn_vjU3wNYHADBiQ,The Brass Tap,"2000 Piazza Ave, Ste 110",Wesley Chapel,FL,33543,28.187735,-82.348591,4.0,111,1
ZbVNtWV8xfpu0F1twjQvxg,Andy's Diner & Pub,505 W Ridge Pike,Conshohocken,PA,19428,40.094886,-75.293728,3.0,272,1
Aw7UWNqfQYZmVlcBJhu2Xw,Lexus of Clearwater,27547 US Hwy 19 N,Clearwater,FL,33761,28.0225537218,-82.7370192961,4.0,136,1
PP3BBaVxZLcJU54uP_wL6Q,Pat's King of Steaks,1237 E Passyunk Ave,Philadelphia,PA,19147,39.9332010583,-75.159265814,3.0,4250,1
UA3HxLprLSOO9J6l1iR2Cg,China Palace,1070 Coast Village Rd,Santa Barbara,CA,93108,34.4218178,-119.6494861,3.5,205,1
eUxD-l-Ddr1iMmzV6prNFw,1864 Tavern,290 California Ave,Reno,NV,89509,39.5199716492,-119.8138727264,4.5,190,1
TXg82zeFo2MpX5BzZXpJUg,I Fratellini,7624 Wydown Blvd,Clayton,MO,63105,38.6428010746,-90.3344146,4.5,214,0
yihGPorZJ4gruJKMgdg4zQ,Dan Dan,214 Sugartown Rd,Wayne,PA,19333,40.0452799,-75.4067607,4.0,302,1
E_Yzg6j5fEBQ0ay-ZwzHKg,Best NY Pizza,14741 N Dale Mabry Hwy,Tampa,FL,33618,28.0807786,-82.5052009,3.0,127,1
o8LebIdVCcy1o0bSD6nT2w,The Greyhound Cafe,81 Lancaster Ave,Malvern,PA,19355,40.0441885267,-75.5298703822,4.5,220,1
VlTwxhPtKWvWxg6VSS9uyA,Bonefish Grill,4889 W Chester Pike,Newtown Square,PA,19073,39.9758110554,-75.4418289271,3.5,148,1
eA9p9OXvrdQI1J1jxVsRlQ,Pho Michael,3559 18th St,Metairie,LA,70002,30.0088012891,-90.1617417474,4.5,293,1
6GlaujiYU2VV7PcPtbQFbA,Grain and Berry,33840 US Hwy 19 N,Palm Harbor,FL,34684,28.0795037,-82.7398695,4.0,128,1
s3E_OAafutZHslDkkMnDQA,Prospector's Grille & Saloon,3050 Rt 38 At Ark Rd,Mount Laurel,NJ,08054,39.9699952704,-74.8707640415,3.0,262,1
DZUZbsr-a_59zjjPY8rGKQ,Stitch House Brewery,829 N Market St,Wilmington,DE,19801,39.7442438413,-75.5488270192,4.0,160,1
6zxPHDdLUNhCSLSeHlCVNg,Something Sweet Dessert Lounge,5319 E Speedway Blvd,Tucson,AZ,85712,32.2365309,-110.8790369,2.5,109,0
Y1dCERRJJ11D0v9Vnir-6w,Hino Oishi,"10491 Walnut Creek Dr, Ste 160",Carmel,IN,46032,39.938378,-86.233438,4.0,127,1
ssr49VxAlvrBo7F7izQvXA,The Pub,7600 Kaighn Ave,Pennsauken,NJ,08109,39.9337766385,-75.0845456369,3.0,370,1
5iuo1kvv0XZMS0bUOoLz2Q,Bistro St. Tropez,"2400 Market St, Ste 427",Philadelphia,PA,19103,39.9535919923,-75.1794226902,3.5,163,0
V7dXBEowSa53mOVaDtnj_A,Topgolf,500 Cowan St,Nashville,TN,37207,36.178008,-86.777981,3.5,278,1
4X_-18QYn1mitVpaeua1CQ,MIZU Sushi Bar,133 S 20th St,Philadelphia,PA,19103,39.9508987,-75.1736693,3.5,112,0
jOU3hmUYmDIswWzW0xvWcw,Embassy Suites by Hilton St. Louis Downtown,610 N 7th St,Saint Louis,MO,63101,38.6307658,-90.1902398,3.5,111,1
ImO3aF_axcKe5pwFf-jQeQ,Emmy Squared - Gulch,404 12th Ave S,Nashville,TN,37203,36.15242,-86.78438,4.0,281,1
FZuzdnT1k5Dx_VcVXpK5fw,True Food Kitchen,3996 Hillsboro Pike,Nashville,TN,37215,36.104461,-86.814532,4.0,265,1
hPmQm4MajFH03BH9n2KsAg,Sam's Gyros,5404 N College Ave,Indianapolis,IN,46220,39.851165,-86.1461204,3.5,131,1
eFn-8QlFGdkT_B-bWigtFQ,Rose Cafe,424 E Haley St,Santa Barbara,CA,93101,34.4215541,-119.6901188,4.0,115,0
L94oj4C7ulosrxPatm0OZg,Valley Forge National Historical Park,1400 N Outer Line Dr,King of Prussia,PA,19406,40.101055,-75.421996,4.5,188,1
n5TNfoXg1i8wX5R3iY4WUA,Cinder Copper & Lace,1500 Locust St,Philadelphia,PA,19102,39.9482528775,-75.1666254178,3.5,157,0
2Ugp3An60FEIQM2FN92AsA,Quinoa Peruvian & Mexican Restaurant,54 E State St,Doylestown,PA,18901,40.310582,-75.129062,4.5,250,1
-ejuzGbu3ZHUndhLTQafJg,Saint Anejo,1120 Mcgavock St,Nashville,TN,37203,36.1560886,-86.7863707,3.5,851,1
ETsHfis7Dm932TS0dRjcoQ,Stone Turtle,6335 Clayton Ave,St. Louis,MO,63139,38.6287335,-90.2926469,4.0,256,1
V0SHmvYtXqdv8-AsqshV6w,Smokin Bettys,116 S 11th St,Philadelphia,PA,19107,39.9495395623,-75.158919096,3.5,796,0
fnCQxWYBAjxrxhkPX2MVzA,IKEA,1311 102 Street NW,Edmonton,AB,T6N 1M3,53.44362177,-113.48926637,3.5,102,1
JpRss-a6Nb1nc3fUvl3MAg,Del Frisco's Grille,4138 W Boy Scout Blvd,Tampa,FL,33607,27.9644574661,-82.5136891007,4.0,390,1
eclNqAZx6YHlkx_QDBF6AA,Sushi Ai,910 Olive St,Saint Louis,MO,63101,38.6287291,-90.1941153,4.0,333,1
TZ9eAkKBKxj4HF_4rga9Gw,Turning Point - Bryn Mawr,925 W Lancaster Ave,Bryn Mawr,PA,19010,40.023566,-75.321419,3.5,147,1
wMQkdK2aNMvq2xoojC98Mw,South Street Diner,140 South St,Philadelphia,PA,19147,39.9410512122,-75.1454045221,3.0,224,1
0RkgKEwGQqwz4noPB65O6w,Hollywood Casino St Louis,777 Casino Center Dr,Maryland Heights,MO,63043,38.7540402,-90.4816007,2.0,140,1
UboXRwy2UBVH91pAwHiK_w,Weber Grill Restaurant,10 N Illinois St,Indianapolis,IN,46204,39.7677795697,-86.1600857249,4.0,782,1
o5UrUOKcmj5GFXmB6Osb6w,Bouligny Tavern,3641 Magazine St,New Orleans,LA,70115,29.9220013,-90.0929215,4.0,160,1
93K-xlLwLnwcFuV2r2MI6Q,Thai Square Restaurant,2521 Christian St,Philadelphia,PA,19146,39.9425684,-75.1852973,4.0,162,1
lMqs-c1Cwzm1Nym-dZNAQQ,Diskin Cider,1235 Martin St,Nashville,TN,37203,36.1408764,-86.7697992,4.5,117,1
GeLwhGlX8XsIsH-o3Wdc5w,360 St. Louis,1 S Broadway,Saint Louis,MO,63102,38.6253789,-90.1911376,4.0,717,1
7PDi_iyik3jraDAzWwwR4Q,Chase JP Morgan Bank Credit Card Services,,Wilmington,DE,19850,39.749361,-75.643331,1.5,111,1
k8JazPdt5ZojaKC1TzYJnA,Kouzina Cafe Gyros and Subs,5300 Nolensville Pike,Nashville,TN,37211,36.0535042915,-86.7146842447,4.5,119,1
Gekeq1c-fuezmx0PSGQvzw,East Coast Super Subs,187 N Park Ave,Tucson,AZ,85719,32.223548,-110.9565081,4.0,177,0
ewaaXBGXMGluuTGXOnTkRg,Tuk Tuk Thai Street Food,"2990 N Campbell Ave, Ste 130",Tucson,AZ,85719,32.260939,-110.943048,4.0,176,1
8QJTzIaR5FceGds8HBSIig,Barrio Brewing,800 E 16th St,Tucson,AZ,85719,32.214412,-110.9595118,4.0,611,1
fxHHCt622p--Zbqcmv9_MQ,Colleen Elizabeth Salon and Spa,"38 S La Cumbre Rd, Ste 1",Santa Barbara,CA,93105,34.4397441,-119.7513582,4.5,101,1
4h4Uskb7B8OTI7oDR7wImQ,Mesa Burger - Goleta,7010 Market Pl Dr,Goleta,CA,93117,34.4293569,-119.8718163,4.0,106,1
5lthMfvA5zK3YhkGHiA6sA,The Great American Pub,148 Bridge St,Phoenixville,PA,19460,40.1339799,-75.5143401,3.5,225,1
VbzoVWEPSfzaIGBq4KlVwQ,Soybean Asian Grille,4702 Limestone Rd,Wilmington,DE,19808,39.7392170075,-75.6925452854,4.5,167,1
dbUSqTB-p1mBeshyAK4kMg,Red Rooster Cafe,801 W Main St,Hendersonville,TN,37075,36.303516,-86.6464159,4.0,103,1
CU90LyF40t62BRWyzHO29A,Nashville Zoo At Grassmere,3777 Nolensville Pike,Nashville,TN,37211,36.0900084098,-86.7355859805,4.0,328,1
RLoGgt2GGC8wHpZ7K2ZbRA,OCF Coffee House,1745 South St,Philadelphia,PA,19146,39.9446597,-75.1717524,3.5,148,1
TvAgXHsAt1s2PgxA1pQa-w,Rembrandts,93 S Eagle Rd,Eagle,ID,83616,43.6945011,-116.3544004,3.5,343,1
8ymBNifw6TBTTKY5IDhfqw,Chestnut Street Philly Bagels,1705 Chestnut St,Philadelphia,PA,19103,39.9516438387,-75.1690094,3.5,302,0
baxAe39nPgmAhkNwqvoHnQ,Olive Garden Italian Restaurant,8306 Citrus Park Dr,Tampa,FL,33625,28.065588,-82.574715,3.5,123,1
bcfXCWaYxIN4UoV_94ksLQ,Gold 'N Silver Inn,790 W 4th St,Reno,NV,89503,39.5275982,-119.8248452,3.5,520,1
dyVKL3qKsz_XDxtjpbNcgQ,El Charro Cafe,7725 N Oracle Rd,Oro Valley,AZ,85704,32.347963,-110.9764168,3.5,436,1
oJ4ik-4PZe6gexxW-tSmsw,Broad Ripple Brewpub,842 E 65th St,Indianapolis,IN,46220,39.8735797809,-86.142783297,3.5,378,1
Tv5gLZyjnMuEpLvdbE5wGw,Rosedale,801 Rosedale Dr,New Orleans,LA,70124,29.9847081719,-90.1085906966,4.0,135,1
tt_QH5mWv4FhiP3-82NOTg,High Garden,935 Woodland St,Nashville,TN,37206,36.1762829,-86.7540363,5.0,122,0
kA7f_FA8AagD3a08zsHdBw,Spa Atlantis,536 Bienville St,New Orleans,LA,70130,29.954099,-90.066607,4.5,145,1
7hsCR9k_GND2QoQyVkITBg,Pho Voorhees,910 Haddonfield Berlin Rd,Voorhees,NJ,08043,39.8479771,-74.9772242,4.5,132,1
yOpDNCFH_VZ91nO22U24Vw,Bravo! Cucina Italiana,3413 Veterans Memorial Blvd,Metairie,LA,70002,30.0041447253,-90.1586916,3.5,124,0
D1lOc4bmegUFyp_eAyJPjw,The Libertine Neighborhood Eatery,7927 Forsyth Blvd,Clayton,MO,63105,38.6505322,-90.3391347,3.5,273,0
HEf0QXnhxrcIWxRfAbQ2iA,Saba,5757 Magazine St,New Orleans,LA,70115,29.9216645,-90.118555,4.5,345,1
MXTV7gLn1GcgBIskfIXwMg,Sedona Taphouse,1120 3rd Ave N,Nashville,TN,37208,36.1757655,-86.7847052,4.5,375,1
nMn4CTJQPXqpgLltYQrxMA,Cajé Coffee Roasters - Haley St,416 E Haley St,Santa Barbara,CA,93101,34.4214524,-119.690428,4.5,240,1
g6rcVXjeLT6Y_kAFhbbJRg,Moolah Theatre & Lounge,3821 Lindell Blvd,Saint Louis,MO,63108,38.6391319,-90.23901,4.5,192,0
xHWi7ZQ0zlRoKWlfnmhOYA,Feby's Fishery,3701 Lancaster Pike,Wilmington,DE,19805,39.7550079,-75.5941192,3.5,141,1
di16IFrhgvaK1W2IFBjU1w,Discount Tire,7450 S Virginia St,Reno,NV,89511,39.4595206732,-119.780082073,4.5,141,1
LvOoifA9mHTNlhCL3GAbkg,Lucha II Authentic Mexican Food,522 N Grand Blvd,St. Louis,MO,63103,38.6386344901,-90.2315908288,3.5,101,1
9uRj85PviKNiMCYPwiJyIw,Columbia Cafe on the Tampa Riverwalk,"801 Water St, Ste 1905",Tampa,FL,33602,27.9422221019,-82.4496754411,3.5,473,1
QVXfW1c8eOm9SJVb3xdo7w,Cheeburger Cheeburger,13311 Manchester Rd,Des Peres,MO,63131,38.601707,-90.466877,3.5,119,1
r1N7zlfX6MgcweowNOt8Qw,Just Judy's,5018 E 62nd St,Indianapolis,IN,46220,39.870166,-86.084153,4.5,218,1
FFhS5dhkyRdLhqQo8Q5WTQ,Pizza-A-Go-Go,6703 Scanlan Ave,Saint Louis,MO,63139,38.6060267,-90.3038189,4.5,145,1
vR-t8pg-ARU9Z-ssT2aRdg,Restaurant Alba,7 W King St,Malvern,PA,19355,40.0359680009,-75.5149436058,4.0,181,1
ltmenUcFgNv7fPOU2BiwKw,El Minuto Cafe,354 S Main Ave,Tucson,AZ,85701,32.2165809,-110.974654,3.5,224,1
konF0Z-x-MNhnqXIwM1aKA,Sandbar,"Opal Sands Resort, 430 S Gulfview Blvd",Clearwater,FL,33767,27.9697078,-82.8301494,4.5,139,1
8_r9EZL6vX5fPBoVh3gUrA,La Playa Azul Cafe,914 Santa Barbara St,Santa Barbara,CA,93101,34.4232341,-119.698741,4.0,318,1
EqxVp4_9Up1HNgpU2pH3WQ,Wooden Ladle Noodle Shop,"3689 Tampa Rd, Ste 305",Oldsmar,FL,34677,28.0448975122,-82.6806946623,3.5,307,1
lWedWkinrM5j13pyimbpbA,Miles Table,1620 South St,Philadelphia,PA,19146,39.944043,-75.1695127,4.5,514,1
DyIO3iCiYaREeSh4ypik8A,Koto Steakhouse & Sushi Bar,533 S Howard Ave,Tampa,FL,33606,27.9396713,-82.4834192,3.0,250,1
-6L_z3ftD1iepJb0FfJghw,Channel Islands Outfitters,117 B Harbor Way,Santa Barbara,CA,93109,34.403719,-119.6936501,5.0,107,0
H5Rk-aunuEzGANXCBu-NPQ,Miguel's Mexican Seafood & Grill,3035 W Kennedy Blvd,Tampa,FL,33609,27.9449042,-82.4930315,4.0,907,1
CpV8X8DHk2VqWo11CEde-w,Paprica Modern Mediterranean Grill,811 Sansom St,Philadelphia,PA,19107,39.9491547,-75.1545837,4.5,154,1
IxX6YczoeBpdt78AzDS4GQ,The Butcher And Barkeep,712 Main St,Harleysville,PA,19438,40.2872863,-75.3987968,4.0,457,1
ny1N_Py01kVoGOvL9oKjMQ,Cask Social Kitchen,208 S Howard Ave,Tampa,FL,33606,27.9426685,-82.4827162,4.0,578,1
vgaDkuxjt8-w-0PtE8tTCA,Yolk - City Way,220 E South St,Indianapolis,IN,46204,39.7618,-86.153413,4.0,680,1
zL7wVx6Ihf1VEb9Wi7P0bw,Beaut Burger,267 South Avenida Del Convento,Tucson,AZ,85745,32.218054,-110.984063,4.0,179,1
D7rmOZO-b-hWnjmNGDw_dg,Outback Steakhouse,10220 N Michigan Rd,Carmel,IN,46032,39.9352049893,-86.234661667,2.5,121,1
PCb4B1fObwg0H-xFQzct1w,Slice of The Burg,10484 Roosevelt Blvd N,St Petersburg,FL,33716,27.8670051,-82.6456539,4.0,100,1
x8joRxn_TPorP1C2LSdSYg,Soulfedphilly,6424 Castor Ave,Philadelphia,PA,19149,40.040537,-75.0769706,3.5,128,1
CbBqxZmkvEqwV1EFEexITw,Pearl Salon,477 N Ashley Dr,Tampa,FL,33602,27.9477181859,-82.4596638945,4.0,150,0
j8feOxyJqlIJWOi8su2qzw,Serial Grillers,5975 E Speedway Blvd,Tucson,AZ,85712,32.236675,-110.865028,4.5,986,1
rgkz13vQnU2WFZBQBMqMAg,Retrospect Vintage,508 South St,Philadelphia,PA,19147,39.9417907758,-75.1511803318,3.5,124,1
lDUKbOWKAVWK11qsjH0fIg,Indian Hut Exton,260 N Pottstown Pike,Exton,PA,19341,40.0333239297,-75.6331336498,3.0,116,1
_rkjLrft2ZgHcLBLF9amXw,Uno Pizzeria & Grill,106 Black Rock Road,Oaks,PA,19456,40.1345642784,-75.4485799227,3.0,138,1
i5X5dshedNVztWO9_o6Dsw,Little Ninja Thai Japanese Food & Cafe,5709 6th St,Zephyrhills,FL,33542,28.2405089,-82.1868917,5.0,130,1
9xIGw5YaYLlqZ4dfnQ1kKQ,Jockamo Upper Crust Pizza,401 Market Plz,Greenwood,IN,46142,39.6113478,-86.1096088,4.5,279,1
S2XX-JCKWjcR1UHClZnn6w,Lee Roy Selmon's Restaurant,4302 W Boy Scout Blvd,Tampa,FL,33607,27.9628169,-82.5154185,3.5,282,0
t-r5BbNosi0aM-0aNQ9t9A,Kneaders Bakery & Cafe,9660 N Oracle Rd,Oro Valley,AZ,85737,32.3823711239,-110.9633181461,3.5,112,1
EDIDMgOAz6AhDzCtPqehNg,Fleming’s Prime Steakhouse & Wine Bar,"555 E Lancaster Ave, Ste 10",Radnor,PA,19087,40.041191,-75.3676536,4.0,244,1
K5ffo0hkwhG33BDNQrJF6A,Slate Bleu Restaurant,100 S Main St,Doylestown,PA,18901,40.3072739,-75.1299259,4.0,105,1
xT41eqUSsM_MDE1Vjhq20A,SoFresh,"533 S Howard Ave, Unit 8",Tampa,FL,33606,27.9396220218,-82.4834168043,4.5,306,1
EKSmnS-fup3HNFLR9J17mQ,Midtown II Restaurant,122 S 11th St,Philadelphia,PA,19107,39.949392,-75.159059,3.0,100,0
qscWQ0p98jQWT-GIEOJM7Q,King Wong Chinese Restaurant,795 Rt 70 E,Marlton,NJ,08053,39.893415,-74.876063,4.5,153,1
whNtPvVGI4cCTWa_Qv5Yiw,Keke's Breakfast Cafe,1203 S Dale Mabry Hwy,Tampa,FL,33629,27.9316149,-82.507125,3.5,121,1
h0wHeh0hTt6Us4W-1SHQOw,Reno-Tahoe International Airport,2001 E Plumb Ln,Reno,NV,89502,39.5050485054,-119.7757894838,4.0,583,1
OHzX-ZD9qyoeoxR8Z0dlIA,Khyber Pass Pub,56 S 2nd St,Philadelphia,PA,19106,39.9486423,-75.1441173,4.0,845,1
VRGYwKE_Z77frm5NwLvJhw,Burger Republic,420 11th Ave S,Nashville,TN,37203,36.1524355,-86.7835814,4.0,721,1
55yVwtNPAHIYp2t6stJKHA,Revelator Nashville,1817 21st Ave S,Nashville,TN,37212,36.1358305,-86.801119,3.5,103,0
DMxgL0TdpR9HCD4P1CdxdQ,Pei Wei Asian Kitchen,12927 N Dale Mabry Hwy,Tampa,FL,33618,28.06436085,-82.502789,3.0,144,1
6x6rR-SErwOo3xF2AzXVHA,Newfields: A Place for Nature and the Arts,4000 N Michigan Rd,Indianapolis,IN,46208,39.8274175724,-86.1896065943,4.5,373,1
LR4aKXyxN-a8WTgQ1o9hBA,Bistro at Cherry Hill,"2000 Route 38, Ste 514",Cherry Hill,NJ,08002,39.940895,-75.025427,4.0,135,1
Nxa362GcR1WWK2og8uJ_sQ,The Clover & the Bee,100 W Lockwood Ave,Webster Groves,MO,63119,38.5928443407,-90.3589685662,4.0,318,1
XowIr_jIS-1bgJbLXwp6-A,Corsair Distillery & Taproom,"1200 Clinton St, Ste 110",Nashville,TN,37203,36.165071,-86.79512,4.5,216,1
0bNQmB_FHHYZRGcs4_WsYA,Men Wielding Fire,1537 S Virginia St,Reno,NV,89502,39.509409,-119.806661,3.0,138,0
KuAaIZIACr2uMSK1UDtueg,East Park Donuts & Coffee,700 Main St,Nashville,TN,37206,36.1742796,-86.7606101,4.5,130,1
ai9OgENCC63Hw7VYWRkV2Q,The Stone Fox,712 51st Ave N,Nashville,TN,37209,36.156219,-86.848358,3.5,144,0
P9xNwbMStRsHsVc6K5PDpg,Toast,5433 Laurel St,New Orleans,LA,70115,29.9185016,-90.1164893,4.5,548,1
ES8YqqXVu2TO6o2iwAOYSQ,Chef Thai & Sushi,"1155 S Dale Mabry Hwy, Ste 22",Tampa,FL,33629,27.9326118,-82.5063215,3.5,148,1
LPzt4zjwSSJnqmhFIyx-bA,Maya Cafe,2726 Sutton Blvd,Maplewood,MO,63143,38.6116759,-90.3196976,3.5,120,0
H_lYfJb0Va8O0QQ2W4zc4w,Stoll Medical Group,1528 Walnut St,Philadelphia,PA,19102,39.9494834373,-75.1673514317,4.0,122,1
cGWhF0eEogy0DKPwCU9TtA,Si-Am Thai,713 N Franklin St,Tampa,FL,33602,27.9504891,-82.4590146,4.0,202,1
Zr3CwG-1zbXlktQoHjgIOQ,Forgotten Boardwalk Brewing,"1940 Olney Ave, Ste 100",Cherry Hill,NJ,08003,39.9122883,-74.9692065,4.5,105,1
M6ZwoibuGA5KxKWnxqKz4Q,Cigar City Brewpub,15491 N Dale Mabry Hwy,Tampa,FL,33618,28.0927616555,-82.5017115315,3.5,303,0
i_kM6kP4u4Wxr3o3_9XN_A,Samurai Blue,13703 N Dale Mabry Hwy,Tampa,FL,33618,28.0701592,-82.5062291,4.0,123,1
0DdmKihJ90qKP5TAM3c2yQ,Tartine,7217 Perrier St,New Orleans,LA,70118,29.9316742785,-90.1322145595,4.5,290,1
tP1x4ntwlFfQBI1ozbBinw,Britt's Coal Fire Pizza,10709 Gulf Blvd,Treasure Island,FL,33706,27.769736,-82.769149,4.0,368,1
VoKEVItQEa0wJjBSBdcQLg,The Counter Meridian,3505 E Monarch Sky Ln,Meridian,ID,83646,43.6213321363,-116.3507491687,3.0,171,0
8r_n8JdKQ0gePm2neSkL7A,Sushi Ai,7020 Marketplace Dr,Goleta,CA,93117,34.429533,-119.872188,3.0,223,1
c7OfNRMIqAhtNOMEat3Rbg,Fellini Cafe,3541 W Chester Pike,Newtown Square,PA,19073,39.986747,-75.397289,4.0,156,1
CIy5YA8iphBQbJPf2v1FSQ,PJ Whelihan's Pub + Restaurant - Haddonfield,700 N Haddon Ave,Haddonfield,NJ,08033,39.9046963935,-75.0419186889,3.0,156,1
5xDQFNAlW5WalnfqOvUxBQ,Sammy's Mexican Grill,16502 N Oracle Rd,Catalina,AZ,85739,32.5056641,-110.9252601,3.5,169,1
gR6ICS7qYX0DX675kJBsBQ,Slow & Low BBQ Bistro,333 54th Ave N,Nashville,TN,37209,36.150691,-86.853789,4.0,136,0
nEFO4hfMiugL3RC6pk0Klg,Los Amigos Dos,404 Patricia Ave,Dunedin,FL,34698,28.005052,-82.775845,4.0,118,1
FD5pfqrsH6bdodCkV-YI1g,Sugo's Spaghetteria,10419 Clayton Rd,Frontenac,MO,63131,38.6335751,-90.4106681,3.5,208,1
thaxF2Bnvu29xdXCf57ULw,Buca di Beppo Italian Restaurant,300 Main St,Exton,PA,19341,40.0220977,-75.6283401,3.0,122,1
KtIuUYABc3KsTi3mOnYW4A,Parlour & Juke,1101 Riverwood Dr,Nashville,TN,37216,36.2241626,-86.7252269,4.5,101,1
GuzbBFraIq-fbkjfvaTRvg,Mesa Verde,1919 Cliff Dr,Santa Barbara,CA,93109,34.4013485,-119.7230803,4.5,1796,1
3VYxaeo6BJNHbVIIfmWN_w,Vicia,4260 Forest Park Ave,St. Louis,MO,63108,38.6355113131,-90.2523982639,4.0,259,1
vzG8THG9K2lDu-Ah6vFAVA,Café Piazza,1900 Arsenal St,Saint Louis,MO,63118,38.596777345,-90.2178671888,4.0,164,1
V83KkmOgTx_h1LDA_A1kow,Kimchi Time,"2900 E Broadway Blvd, Ste 186",Tucson,AZ,85716,32.2205738,-110.9297074,4.0,369,1
W3vh-SwbjqvTWczrDOsKgA,Chiba,8312 Oak St,New Orleans,LA,70118,29.9488275,-90.1319128,4.0,264,0
h_tRcijFYxrUiZ59FXfBOQ,Still Perkin',2727 Prytania St,New Orleans,LA,70130,29.9302073,-90.0849707,3.5,169,1
C2lGdB-myrO9mxz3UHChAw,Plato's Closet Reno,5083 S Mccarran Blvd,Reno,NV,89502,39.4782324838,-119.7850218,3.0,214,1
_PQzeo8P2sGczzFEifrK-Q,Claudio's Specialty Foods,924-26 S 9th St,Philadelphia,PA,19147,39.9381953,-75.1582206,4.5,148,1
1vN178lXfJ77EmFRBYzteg,Alice Bakery & Confectionary,95 E Butler Ave,Ambler,PA,19002,40.1547719,-75.2217773,4.0,112,0
KWGyIzQMILsT0Zx6slvBNg,Victoria's Bagel Bistro,"3131 Rt 38 & Larchmont Blvd, Ste 5",Mount Laurel,NJ,08054,39.971193,-74.880136,4.0,215,1
MbNcVhRqpNPcvgFzWgaxSQ,"MOOYAH Burgers, Fries & Shakes",4100 Veterans Blvd,Metairie,LA,70002,30.00411,-90.177,4.0,195,1
qhRq6HPGNn1BYojzDdkgRA,Red Bench Pizza,1204 S Vista Ave,Boise,ID,83705,43.5932082,-116.2132603,4.0,131,1
YvaccJaSqbCNOYsEqWBSCw,Banh Street,1062 Tyson Ave,Abington,PA,19001,40.12004,-75.1346695,4.5,114,0
3X1IHpOzx0IYp5wM7JVF4g,Taj Mahal Indian Cuisine,"923 Metairie Rd, Ste C",Metairie,LA,70005,29.9892834,-90.1318955,3.5,208,1
7eiGKDBo7qymeasy-uq1qQ,Ritz At the Bourse,400 Ranstead St,Philadelphia,PA,19106,39.9492886,-75.1477118,4.0,103,0
WlQt5eBlsMeEKvuG4fP3kA,Primanti Bros,5221 Noggle Way,Indianapolis,IN,46237,39.6370999,-86.0799985,3.5,111,0
4mGnHfvwjE6P-vuKowHzCQ,Taco Buddha,7405 Pershing Ave,University City,MO,63130,38.6537379951,-90.3299817858,4.5,282,1
8-0EBUcwlrRMWhSNdT-5FQ,Sake Cafe Veterans,4201 Veterans Memorial Blvd,Metairie,LA,70006,30.0063285527,-90.1788542981,3.0,112,1
5d6Re2uKakZvY-QPJgTvUQ,Shugga Hi Bakery and Cafe,1000 Dickerson Pike,Nashville,TN,37207,36.1893671,-86.7732544,4.5,113,1
IvAa7PvfOYl0xRML5W3ebg,Yards Brewing Company,500 Spring Garden St,Philadelphia,PA,19123,39.9609706195,-75.146908,4.0,755,1
xGcpC8D4Sio-bN9KCr054g,Zen Bistro Grill + Sushi,2223 N Westshore Blvd,Tampa,FL,33607,27.9640468,-82.5216049,3.5,119,0
LttC5xNMFcgOg3bt_MlXTg,McAlister's Deli,"4410 W Boy Scout Blvd, Ste 150",Tampa,FL,33607,27.9598166464,-82.5185054974,4.0,121,1
ObHsdZKeFSvoPJT8D0r1yA,The Avenue DTSP,330 1st Ave S,Saint Petersburg,FL,33701,27.770057,-82.637674,3.5,734,1
rNY5xg0FZSBopfmi-QZ_NA,Lerua's Fine Mexican Food,2005 E Broadway Blvd,Tucson,AZ,85719,32.2217563,-110.9421181,4.0,157,0
8tJWgFe3ztfxYg3YWcw3rA,Ocean Nails & Spa,5768 Calle Real,Goleta,CA,93117,34.44181,-119.825509,3.5,201,1
RKVZbcCKNcAM5Jk_cV7I9A,Sage,1031 Lynch St,Saint Louis,MO,63118,38.5999553,-90.2118706,3.5,110,0
RY3SwE3MjUCM_1c6zrNkNA,Hungry Harry's Famous Bar-B-Que,2006 S Parsons Ave,Seffner,FL,33584,27.9788551,-82.2855272,4.0,153,1
5rSg5FARufPsy_ACLLhy-g,Alessi Bakery,2909 W Cypress St,Tampa,FL,33609,27.9523562,-82.4899485,4.0,299,1
4nrZ42MbdzstpNZaB_Fmew,Dreamy Weenies,740 N Rampart St,New Orleans,LA,70116,29.9611632,-90.0675517,4.5,318,0
ak-RiYgUZzM_90c8ONWFzw,Burgundy Blue Photography,1100 Anacapa St,Santa Barbara,CA,93101,34.4241261,-119.7022869,5.0,174,1
5wlbureqTc6gsaB_y-OkOA,Bovaconti Coffee,1042 Virginia Ave,Indianapolis,IN,46203,39.7529945873,-86.1406107012,4.5,200,1
r63rFmywD8j_XdXibn4-Bg,El Sombrero,6017 Nolensville Pike,Nashville,TN,37211,36.0268199326,-86.7131913622,4.0,101,1
rdiB9Aye9-gkwd2hnckWHQ,Tsunami Sushi & Hibachi Grill,2020 Badlands Dr,Brandon,FL,33511,27.9271458636,-82.315246427,4.0,185,1
Mgcgy5ZCZvwzggV5xausug,Lee's Grocery,2210 N Central Ave,Tampa,FL,33602,27.9646764,-82.4554675,4.5,203,1
-2YZIUArmrIMVVBi8CT47w,Tandoor Indian Cuisine,805 E Brandon Blvd,Brandon,FL,33511,27.9371755,-82.2730687,4.5,100,1
7JiyUwszN600WC1JWSlcTA,Dis & Dem,817 St Louis St,New Orleans,LA,70112,29.9572864,-90.0674261,4.5,166,0
cxupofYLq46bxBHpKyFwsQ,Wyndham New Orleans - French Quarter,124 Royal Street,New Orleans,LA,70130,29.953713,-90.068526,3.0,266,1
5rryuz2myZJI0EfWtrTMxw,MIUCHA,222 N 10th St,Philadelphia,PA,19107,39.9562052,-75.155914,3.5,122,0
L9WXqSyuKNQS-eqDqTWLgQ,Soulard Gyro,900 Shenandoah Ave,St Louis,MO,63104,38.604608,-90.2064445,4.5,145,1
GoYSJ-YY-YwbxdgasHuq-Q,Mixto,1141 Pine St,Philadelphia,PA,19107,39.945195,-75.161082,4.0,1246,1
j5siJykDq7GWzgSdpOjhdw,Jack Brown's Beer & Burger Joint,1123 3rd Ave N,Nashville,TN,37208,36.1759076,-86.7856404,4.0,432,1
8yR12PNSMo6FBYx1u5KPlw,Bru Burger Bar - Indianapolis,410 Massachusetts Ave,Indianapolis,IN,46204,39.7733071672,-86.1520911055,4.0,1608,1
SdeLVoqiYXiOAqhSxrZ3Gw,Yats,"12545 Old Meridian St, Ste 130",Carmel,IN,46032,39.9721339,-86.150525,4.5,214,1
BVum9KkINV1SykL_jvU62w,Felice Italian Pork & Delicatessen,29263 US Hwy 19 N,Clearwater,FL,33761,28.038441308,-82.7366375683,4.5,119,1
T4E23iml3us2oH_OVGBr4Q,Gandhi Cuisine of India,150 W Fort Lowell Rd,Tucson,AZ,85705,32.2654405,-110.9736225,4.0,194,1
0-9PkkpEM53bTgUQo-ls9g,Anthony's Coal Fired Pizza,"321 E Lancaster Ave, Unit F",Wayne,PA,19087,40.0444721,-75.3793381,3.5,188,1
9y_0_oMDt9R5n2lDcWQv3A,Torch-Wood Cafe,303 N 3rd St,Philadelphia,PA,19106,39.955985,-75.1443256,4.5,103,1
M9yGovzfImwcj31b7BztYQ,Sapporo,1593 Gallatin Pike N,Madison,TN,37115,36.2925298,-86.7021529,4.0,150,1
M5rj-zpkCHcGXTxBbcrDXQ,Bandit Coffee Co.,2662 Central Ave,Saint Petersburg,FL,33712,27.7707528,-82.6695462,4.5,296,1
8QY974PXRbLFIcJUqz7gsA,Freddy & Tony's Restaurant,201 W Allegheny Ave,Philadelphia,PA,19133,39.9992623,-75.133377,3.5,117,1
LICbmW9NVcSB6d0ITXvadQ,Amerigo Italian Restaurant,1656 Westgate Cir,Brentwood,TN,37027,35.9663995173,-86.8045954,4.0,228,1
x7_p5O3ChQa7shdHCcLHZQ,Olivier's Creole Restaurant,204 Decatur St,New Orleans,LA,70130,29.9510658,-90.0715323,3.5,172,0
SQmg_3x5JkjMl-16tjqjUg,Hong Kong House,1120 E Fowler Ave,Tampa,FL,33612,28.0550609,-82.4472421,3.5,171,0
EmQQkn-kdK3bZI1cpHRQyA,Indian Cuisine,1939 Arch St,Philadelphia,PA,19103,39.955609433,-75.1729371116,3.5,106,0
2SVykxI_KVFiHQYpLfmU3g,Papa Joe's Italian Restaurant and Bar,1301 S Capitol Blvd,Boise,ID,83706,43.6055005,-116.2121942,3.5,144,1
2g3rvWWSD26WQEmK-iYj3A,Lai Lai Garden,1144 Dekalb Pike,Blue Bell,PA,19422,40.1628269005,-75.2935879183,3.0,106,0
j579drGztc4y1i-5dGFapA,Kim Anh's Noodle House,6624 Jefferson Hwy,New Orleans,LA,70123,29.937732,-90.195436,4.0,115,1
q-lBD46MyZEBL-ZBlyhdjQ,Mug n Bun,5211 W 10th St,Indianapolis,IN,46224,39.7796488,-86.2487329,3.5,305,1
hm_vd7AoipjSa3i0AFAR5A,TJ's Restaurant & Drinkery,35 Paoli Plz,Paoli,PA,19301,40.0423186,-75.4855999,4.0,326,1
bKH8KKA0kuLz-gXj8kh9dQ,Better Business Bureau Serving West Florida,2655 Mccormick Dr,Clearwater,FL,33759,27.9976689,-82.7257365,4.5,110,1
VnpokM7AD0zYXfyDNEDe6g,Marlton Diner,781 W Rt 70,Marlton,NJ,08053,39.8964553,-74.9406652946,2.5,252,1
RsZFGqDyTUk9kEJzVLWHdQ,Marlin Darlin Key West Grill,2819 W Bay Dr,Belleair Bluffs,FL,33770,27.917239,-82.8181364,3.5,207,0
ZKKaP4Lx-dexf4T1aCsBKw,Modita,"850 Massachusetts Ave, Ste 110",Indianapolis,IN,46204,39.7797592847,-86.143376865,4.5,137,1
S9SYcMTJvKqImncnEZ7tFw,Copper Fire Bar & Eatery,200 E Main St,Belleville,IL,62220,38.5134253,-89.9813947,3.0,107,1
RdFgbrE_8sf6NImEMopaPQ,Beachbreak Cafe,324 State St,Santa Barbara,CA,93101,34.4157298,-119.6936606,3.5,141,0
syZwSaIJ-Hh6mQAu9JRVnQ,Panera Bread,112 Westshore Blvd,Tampa,FL,33609,27.9444945628,-82.5233526529,3.0,119,1
yaEC_LAfaoY4yZyubF-4Jw,Morton's The Steakhouse,41 E Washington St,Indianapolis,IN,46204,39.7668271,-86.156587,4.0,149,0
9O5FMfiJIi_u81D6ksG8Ag,GameTime,1600 E 8th Ave,Tampa,FL,33605,27.9611161408,-82.4409069127,3.0,191,1
wmByH6-0XAgLxLMUzWourA,Tennessee State Museum,1000 Rosa L. Parks Blvd,Nashville,TN,37208,36.172512,-86.790153,4.5,106,1
VgAKmXE8B7J0I_O_R13UKQ,Santa Barbara Roasting Company,321 Motor Way,Santa Barbara,CA,93101,34.41507,-119.6944335,4.0,511,1
aY_n9RSaD2Yw09jSFFePew,PizzaMan Dan's,699 Linden Ave,Carpinteria,CA,93013,34.3969589,-119.5210632,4.0,124,1
6q_i-nV0R4r7bqjIHSKjFw,10 Barrel Brewing - Boise,826 W Bannock St,Boise,ID,83702,43.617830059,-116.202910915,4.0,543,1
6h4niEtD25zwdmR3GJ5HAA,Bertucci's Italian Restaurant,1220 Nixon Dr,Mt. Laurel,NJ,08054,39.9390059,-74.9637557,2.5,110,1
W-LtYDGHDF6j0I_810hzuA,Fiorella's the Original,5325 Franklin Ave,New Orleans,LA,70122,30.0129551,-90.0506932,4.5,124,1
TsZEKqs0wzP3WHnPkV0Eig,Hotel Indigo Nashville,301 Union St,Nashville,TN,37201,36.165236,-86.778784,3.5,193,1
7-d-zyz1dCqPb2K5l3Kg5g,Albita's Mexican Restaurant,"1280 Terminal Way, Ste 17",Reno,NV,89502,39.5115621,-119.7768993,4.5,127,1
9xCprW96TZFLajnnN-w8Pg,Dough,2602 S MacDill Ave,Tampa,FL,33629,27.9222411,-82.493317,4.0,589,1
mg7c4-H5oU3fE-jDSUlfNw,Asian Harbor,203 W Michigan St,Indianapolis,IN,46204,39.7741395235,-86.161667034,3.5,187,1
oLc7k78_YcDMnMCdbC-h1A,Lucy's Retired Surfers Bar & Restaurant,701 Tchoupitoulas St,New Orleans,LA,70130,29.9464139,-90.0675418,3.5,514,1
f-xTgL53Bd_zPsDTn1_37g,CMX CinéBistro Hyde Park,1609 W Swann Ave,Tampa,FL,33606,27.9377169,-82.4763757,4.0,438,1
E_xKCE3DRml39fOZM2dH3w,Sprouts Farmers Market,587 S Meadows Pkwy,Reno,NV,89521,39.439655,-119.760126,3.5,124,1
tMtI6ECD6hwM-nFp2kXLKQ,Tea Do,132 N 10th St,Philadelphia,PA,19107,39.954605,-75.156209,4.0,835,1
_qdWW_AhhkW8jPs6HEtEfA,Juicy's Giant Hamburgers,3981 S McCarran Blvd,Reno,NV,89502,39.4771979,-119.7636251,4.0,113,1
rjnjqqwMLbEGs5m16u2cGA,Milk Bar,1514 Delachaise St,New Orleans,LA,70115,29.9268149,-90.0921295,4.5,201,0
Om4HcFLDeNZwkzk1e_Bi8A,Reno Public House,33 St Lawrence Ave,Reno,NV,89501,39.5181892,-119.8100782,4.0,109,1
V9XlikTxq0My4gE8LULsjw,Claim Jumper Steakhouse & Bar,3761 E Broadway Blvd,Tucson,AZ,85716,32.22188,-110.91307,2.5,325,0
y_cUvG1Fn2yHZL84NYaS9g,"UP, a rooftop lounge",901 Division St,Nashville,TN,37203,36.1503489,-86.7815775,3.5,158,1
rE35KDAIC_nIAhurQCaCMA,Texas Roadhouse,10340 US 36 E,Avon,IN,46123,39.76441,-86.33975,2.5,174,1
pJtvP5aHophr2gjIVvX-YA,Kabab Cafe,231 E Swedesford Rd,Wayne,PA,19087,40.0740974305,-75.4309982506,4.0,266,1
UoZg0xZepdMXbK_2dtT2nw,Gracious Bakery + Cafe,2854 Saint Charles Ave,New Orleans,LA,70115,29.9300081,-90.08707,4.5,149,1
skJ1w8B5YusIibyxH4ohxQ,Fulton Alley,600 Fulton St,New Orleans,LA,70130,29.9464828,-90.0651152,3.5,182,1
wltU8uAAmMDhMAqBAuIZzw,Free Library of Philadelphia,1901 Vine St,Philadelphia,PA,19103,39.9594426101,-75.1710639462,4.5,105,1
EtKSTHV5Qx_Q7Aur9o4kQQ,Village Whiskey,118 S 20th St,Philadelphia,PA,19103,39.9514165949,-75.1737677917,4.0,1553,1
Aes-0Q_guDeYewMapFs_vg,Longboard's Grill,210 Stearns Wharf,Santa Barbara,CA,93101,34.410291545,-119.6865421917,3.0,516,1
C5MdSiVtZKirRghyh08C0g,Bodhi Coffee,410 S 2nd St,Philadelphia,PA,19147,39.9428633,-75.1456224,4.0,167,1
ZTh7O_meLI31wi1gA_nk8Q,Sushi Sake,4418 Lemay Ferry,Saint Louis,MO,63129,38.4999275208,-90.3312530518,3.5,160,1
jxbhi7rEQIjh4uSRunZQVA,Hampton Inn St. Louis-Downtown At the Gateway Arch,333 Washington Avenue,Saint Louis,MO,63102,38.630049,-90.186505,4.0,112,1
clwjLY7PdYJpe7IP9lrqEw,Don Jose's Grill,2722 Williams Blvd,Kenner,LA,70062,30.0058202,-90.2404519,4.0,270,1
z3jfgtlDBww3jTPLosPeew,Korea House,"6410 Charlotte Pike, Ste 108",Nashville,TN,37209,36.143765,-86.874381,4.5,378,1
n_7EQxn0ciucIOJfpWVaTQ,Saigon Deli,3858 W Waters Ave,Tampa,FL,33614,28.0246937978,-82.5076236703,4.5,738,1
RRGLss4hhvZZuR0N6GQlSw,Nook,116 Santa Barbara St,Santa Barbara,CA,93101,34.4157328,-119.6884605,4.0,208,1
hsmK0eu4yD57qE6w7I7Gvg,Monty's Sandwich Company,"200 N Broadway, Ste 110",Saint Louis,MO,63102,38.6275784266,-90.1887671281,4.0,133,0
7tN8hIXdQlfc7Lf5OOyjeg,Gator's Dockside - Tampa,5840 E Fowler Ave,Tampa,FL,33617,28.0548911,-82.3905826,3.5,158,0
LuJf3rdkswqf6GzbuXVtBQ,Anthony's Coal Fired Pizza,"7000 Midlantic Dr, Ste 300",Mount Laurel,NJ,08054,39.9653604,-74.9198268,4.0,165,1
qVTTPVz4W91yJiQMrK-R1A,MOD Pizza,"10580 N Oracle Rd, Ste 150",Oro Valley,AZ,85737,32.398191,-110.956262,4.0,117,1
IIC_gGdLTSCbRMtKzg1-ZQ,MiAn Sushi and Modern Asian Cuisine,88 E Broadway Blvd,Tucson,AZ,85701,32.2206985,-110.9691984,4.0,219,0
wE-U4wEFIOt3YRBdhgBkfw,Grant's Farm,10501 Gravois Rd,St. Louis,MO,63123,38.5447884,-90.357825,4.5,271,1
cT5BTXa0RdtGw3Vazs843A,Szechuan Omei,2601 E Speedway Blvd,Tucson,AZ,85716,32.2363883,-110.9336425,3.0,112,0
AbUMLNaW9DzYelM4AGK3Xg,Deli Towne USA,3650 Lakeside Dr,Reno,NV,89509,39.4903326,-119.8073462,4.0,311,1
Zc9vEAWzsQ8G-tn7w28Paw,Sam’s Furniture Outlet,2020 W Prince Rd,Tucson,AZ,85705,32.2732477,-111.0087451,1.5,127,1
9XjXIqQFQ2SfeHTwPRngIA,Deville Coffee House & Crêperie,2045 Magazine St,New Orleans,LA,70130,29.9305016165,-90.0755985251,4.5,160,1
R0JUjyjGEzUlY3auVhY_tg,North Bowl,909 N 2nd St,Philadelphia,PA,19123,39.9644125073,-75.1403277254,4.0,484,1
QFQ8PQit-SCD5L1rUsvTBQ,Burgerhaus,89 Veterans Way,Carmel,IN,46032,39.9776486,-86.1281255,4.0,173,1
r8rY6hJGtmVkJw1L--EDwg,Joe Santucci's Square Pizza Bar & Grill,4050 Woodhaven Rd,Philadelphia,PA,19154,40.0859595,-74.9711521,3.5,136,1
lXVJLzBNEd5qWuoX1d1okQ,Ed's Buffalo Wings & Pizza,3513 Lancaster Ave,Philadelphia,PA,19104,39.9583155,-75.1928745,3.0,190,1
OWAV1u6App06ZoqT0H-Gwg,Eden Nail Lounge,"8175 S Virginia St, Ste B400",Reno,NV,89511,39.4525887,-119.7790397,4.5,127,1
eCTxuiQaPAITUcOPextA7A,The Tampa Riverwalk,200 N Ashley Dr,Tampa,FL,33602,27.946125689,-82.4598516498,4.5,206,1
fTXSAVnzPkHqCzA4l6896g,Chicken Salad Chick,"2790 E Fowler Ave, Ste 490",Tampa,FL,33612,28.0553985034,-82.4273366597,4.5,177,1
PipWZrOMuoetKcKkHSRUkQ,Panera Bread,110 W Washington St,Indianapolis,IN,46204,39.7674354,-86.16012,3.0,124,1
gRP2B9uMhpoOr7oCWQ-qwg,Lana Nails & Spa,887 Linden Ave,Carpinteria,CA,93013,34.3982121,-119.5195454,4.5,253,1
K2MrnWrEEg9FzHrm9lve8A,Fresh Kitchen,"4447 4th St N, Ste 2",Saint Petersburg,FL,33703,27.8126031,-82.6382577,4.0,327,1
x4o0RXGhFhGRs5oE74q83A,86 West,86 W State St,Doylestown,PA,18901,40.3087426,-75.1324417,3.5,231,1
N29uir3jdwrezjQuy8YXTQ,Dimitri's on the Water Greek Restaurant,690 Dodecanese Blvd,Tarpon springs,FL,34689,28.1556389,-82.7598814,3.5,389,1
k-q7lm2ovMSTZa4j16OzGg,Gloria’s Cafe,2365 Dickerson Rd,Reno,NV,89503,39.5215054119,-119.8398611727,4.5,106,1
YwbvH_Y3LxlCg38jS_r6AA,Courtesy Chrysler Jeep Dodge Ram Tampa,9207 E Adamo Dr,Tampa,FL,33619,27.9488166756,-82.3511224957,2.5,148,1
hh-YYOIcr0sEym2cbM0GEA,Hyde Park Prime Steakhouse,51 N Illinois St,Indianapolis,IN,46204,39.768401,-86.159615,4.5,182,1
hAmuto6UndVroyd_DaD-TA,Lobster Haven,12807 W Hillsborough Ave,Tampa,FL,33635,28.0300603,-82.6384793,4.0,441,1
nVI9wI9ujmrutJRMgHKSIg,Fiesta Maya Mexican Grill,1178 Baltimore Pike,Springfield,PA,19064,39.9142377,-75.3478566,4.5,130,0
AauDx7QSes9nZOAAa4LIbQ,Sushi House,1901 N 19th St,Tampa,FL,33605,27.9611133791,-82.437770679,4.5,212,1
9kRMy3STSi9X6ETtIhrYGg,Akira Sushi Hibachi,3226 N Arnoult Rd,Metairie,LA,70002,30.0087152078,-90.1607745073,3.5,350,1
4fUrcm8sFSprCbHqa8pdog,Jimmy Kelly's Steakhouse,217 Louise Ave,Nashville,TN,37203,36.1520733,-86.805678,3.0,323,1
9u4_k8-XC4RFETCeiQdO8w,Falora,3000 E Broadway,Tucson,AZ,85716,32.2213234077,-110.9275525133,4.5,284,1
YtSqYv1Q_pOltsVPSx54SA,Rittenhouse Grill,1701 Locust St,Philadelphia,PA,19103,39.9489487,-75.1695317,3.5,290,1
3UR6sAv6l4rtfSvTPTavFA,Jack's Donuts,516 E Carmel Dr,Carmel,IN,46032,39.9629195,-86.1176054,4.0,110,1
ez1xAIwSguvgj3F8B7uJsA,Pepperoncini Restaurant & Bar,72 Poplar St,Conshohocken,PA,19428,40.0724915206,-75.302182764,4.0,244,1
xIikDI4ny1YSl1XCIix_IA,La Parrilla Fresh Mexican Bar & Grill,2615 Elm Hill Pike,Nashville,TN,37214,36.150944,-86.6752433,3.5,100,1
lqF0Q5vVLxY-_Cth6LtEdg,The Gallery Pastry Shop,"1101 E 54th St, Ste G",Indianapolis,IN,46220,39.850379,-86.139361,4.5,485,1
LB19zg7guFOqO1KatskCUg,Millennium Nails and Spa,8000 Germantown Ave,Philadelphia,PA,19118,40.0707695,-75.2009769,3.5,101,1
fZuNemxoVGRN2ENWu9zvcw,Hyatt Regency New Orleans,601 Loyola Ave,New Orleans,LA,70113,29.9496385,-90.0774507,3.0,521,1
J2Jl-zmU7bjKsc9JZ65c-Q,Fill A Bagel & Breads,424 Old York Rd,Jenkintown,PA,19046,40.0967875,-75.1256231,3.5,146,1
A1UcdK-Eb4xsqXequ4zNUA,Falcone Automotive,1930 W 16th St,Indianapolis,IN,46202,39.789665,-86.195386,4.5,103,1
_oRpJmQchbbEGEn3Xo8OPg,Sugar Factory,5223 N Orient Rd,Tampa,FL,33610,27.994166,-82.371294,3.5,207,1
pvRqGsEqQ0Olc_f1tLbmrQ,Plaza Liquors & Fine Wines,2642 N Campbell Ave,Tucson,AZ,85719,32.2549632,-110.9435142,5.0,141,1
s2JiYzE7i68cXIV6YEcVTw,Local 44,4333 Spruce St,Philadelphia,PA,19104,39.952821,-75.210442,3.5,494,1
fKAxmycMFwO9qWVUAOQzOw,G's Pizza,4840 Bienville St,New Orleans,LA,70119,29.981451,-90.10724,4.0,292,1
1ikDMnTH3DSeRtgBSceXpQ,Iron Hill Brewery & Restaurant,60 Greenfield Ave,Ardmore,PA,19003,40.0086639,-75.2976249,3.5,208,1
8q25GCkL0PngPIlCu2j4Vw,Pangolin Café,"955 S Virginia St, Ste 110",Reno,NV,89502,39.5156575,-119.8083936,5.0,132,1
VOcGcN0bvGU_nzxbJgR5jQ,Bettina,1014 Coast Village Rd,Santa Barbara,CA,93108,34.4225616,-119.6517163,4.5,311,1
05ev984NYfimRN0UiFrxaA,Osteria,640 N Broad St,Philadelphia,PA,19130,39.965015,-75.161076,4.0,877,1
zsQ1_PNV3KN0EWhAE-WV9g,Tohono Chul Garden Bistro,7366 N Paseo Del Norte,Tucson,AZ,85704,32.3398332,-110.9808198,4.0,165,1
hGSgFpjbxfQGJGKHxM8qQg,BMW of the Main Line,225 Bala Ave,Bala Cynwyd,PA,19004,40.0062255,-75.232064,2.5,113,1
lqL7SQ191yU1fOBrsyvoTA,Famous Greek Salads,"2508 N McMullen Booth Rd, Ste A",Clearwater,FL,33761,28.0125812,-82.711657,4.5,125,1
h5gZBDA_aojrxnL7UTiUaA,European Wax Center,"921 Haddonfield Rd, Ste A A",Cherry Hill,NJ,08002,39.925576,-75.0347492509,4.0,130,1
qUHaTDZlzjPXSvXrLk66mw,Rai Rai Ramen,1200 S Church St,Mount Laurel Township,NJ,08054,39.9199498,-74.9283212,4.5,196,1
Ezp-VVU3oKXRDpTNSzgPoQ,Losers Bar and Grill,1911 Division St,Nashville,TN,37203,36.1496733,-86.7967478,3.0,179,1
oY5EIvb0WZ_4qwioC1eXsw,Deli George,220 S Broadway Ave,Boise,ID,83702,43.60857899,-116.1925623686,4.5,157,1
VVHfqUeYyAA9FEsH-6PI2A,Foundation Grounds Coffeehouse & Cafe,7298 Manchester Rd,Maplewood,MO,63143,38.6132736,-90.3168919,4.0,247,1
xmO9u_t1LspxV5iuF594Tg,Wudon Korean BBQ,1261 Castillons Arcade Plz,Saint Louis,MO,63141,38.6825538,-90.4754746,4.0,249,1
Ax2N_NOnazartWbmi6Rckg,Rocky Steps,2600 Benjamin Franklin Pkw,Philadelphia,PA,19130,39.9658014703,-75.1811616495,4.5,168,1
tt3NK-Y_Q3qFRDHVLpKTHw,Elevage,1207 S Howard Ave,Tampa,FL,33606,27.930558,-82.483335,4.0,344,1
KChWMIHxMChTE11ZVsIVZw,Sub Zero Vodka Bar,308 N Euclid Ave,Saint Louis,MO,63108,38.6450615,-90.2611929,3.5,503,0
8Pw3gUxSISkGqWNOsdWQ4Q,Thai Papaya,"3905 W 96th St, Ste 1000",Indianapolis,IN,46268,39.9255500281,-86.2274684411,4.0,132,1
VPEZwyog5oF82gzd9qfcOA,The Grill At Quail Corners,6520 S McCarran Blvd,Reno,NV,89509,39.4762326,-119.8004574,4.0,256,1
3u4tRuGoPfAAw36b_yO-4Q,Wingstop,720 S Meadows Pkwy,Reno,NV,89521,39.4380478872,-119.7578102304,3.0,113,1
qK7E1up_L7JlJ8yhV6Gfxg,Kuriimii,1023 Cherry St,Philadelphia,PA,19107,39.9547891,-75.1569208,4.5,188,0
DE7oNZUBOkAQ4zhA8tZQLg,Crabby Bill's Off The Hook,9648 W Linebaugh Ave,Tampa,FL,33626,28.0431792757,-82.5932304701,3.5,171,0
-tDmeO1Q5aqThVY3AFJJ7A,Oceano,2707 S Virginia St,Reno,NV,89502,39.4984509127,-119.8008718326,4.0,753,1
SsdCrUeZlHqqGOWTfZ95Cw,Pica's Restaurant of Upper Darby,7803 West Chester Pike,Upper Darby,PA,19082,39.9652977,-75.2752038,4.0,264,1
b05wsdAVzpZlf7Tg_Ewpww,Sullivan's Steakhouse,1785 E River Rd,Tucson,AZ,85718,32.2883933487,-110.9456679225,3.5,378,1
K_VSVOzM49dfPWMwuysSmA,Angelo's Glassboro Diner,26 N Main St,Glassboro,NJ,08028,39.7030355373,-75.1115462607,4.5,134,1
e3Y3hDpwHc9RmQlJtIgHuw,Lacroix Restaurant at The Rittenhouse,210 W Rittenhouse Sq,Philadelphia,PA,19103,39.9499125,-75.1736448,4.5,434,1
6zEWIsb6Lhr3BeoC3gm1lw,Chickie's and Pete's,8500 Essington Ave,Philadelphia,PA,19153,39.8774228729,-75.2405207186,2.5,787,1
oziGQYLaEWOpNmPKrZP86g,Isgro Pastries,1009 Christian St,Philadelphia,PA,19147,39.9393373391,-75.1597427314,4.5,472,1
OkWFmXM4sDI02KnDY3X-fw,Indie Coffee Roasters,220 E Main St,Carmel,IN,46032,39.9786625,-86.1240296,4.5,148,1
qoHgAxwNTiNCli9d7RQl2w,Sweet Charlie's,1921 Walnut St,Philadelphia,PA,19103,39.9506847,-75.173394,3.5,103,1
8oOp3O8AwE04xoSBEgFMlw,Samson and Sons Heating & Cooling,"9420 E Golflinks Rd, Ste 108",Tucson,AZ,85730,32.1908892,-110.7919556,5.0,123,1
SOsjW1JARmtHUFtpFlp8rw,Snap Custom Pizza - Center City,1504 Sansom St,Philadelphia,PA,19102,39.9502972,-75.1661556,4.0,271,1
uiVFEAmfCmUkJ0ESEU5OmA,Marsha Brown,15 South Main St,New Hope,PA,18938,40.3638197,-74.9516102,4.0,535,0
lePpoZDJ_U7LIopHpr5zRA,Extended Stay America - Santa Barbara - Calle Real,4870 Calle Real,Santa Barbara,CA,93111,34.443471,-119.7915028,2.5,124,1
xlhc-wi6T7i-xxWTPMwaHA,Salon Vanity,"1701 Walnut St, Fl 3",Philadelphia,PA,19103,39.950592,-75.16919,4.0,153,1
LalGsMdQmJeIvCgqHVZZsg,Gordon’s Milkshake Bar,865 Massachusetts Ave,Indianapolis,IN,46204,39.7791372237,-86.1429247664,4.5,193,1
xwjUyOwIQuFNaBCxhedwLA,Edley's Bar-B-Que,908 Main St,Nashville,TN,37206,36.1761265,-86.7567142,4.0,731,1
j99PtxlKTW_u5alE4jiqHQ,Ralphs Italian Restaurant,760 S 9th St,Philadelphia,PA,19147,39.9400584,-75.1578655,3.5,653,1
KTGEa8V9ec0QBYM_uk1YLQ,Czerw's Kielbasy,3370 Tilton St,Philadelphia,PA,19134,39.986119,-75.0979492,5.0,150,1
3_sunYhg-5DBTinDeRq8uw,"High Tides Restaurant, Bar & Banquets",1067 Totem Rd,Bensalem,PA,19020,40.094808,-74.9149339,2.5,198,0
-lLEaycKOdFoPALPL33NFA,Oishi Sushi,721 N New Ballas Rd,Saint Louis,MO,63141,38.6689658,-90.4442089,3.5,113,1
QN38TkkGzF5vB1urbvi5nQ,Flying With Jerome,1469 S Belcher Rd,Clearwater,FL,33764,27.9432116,-82.7453974,4.5,313,1
sXEYhxjZN6TyLPic6LohVg,Mexican Mariachi Grill,1507 Parkway Ave,Ewing,NJ,08628,40.267089,-74.811243,4.0,171,1
tr366vgAkbcpJBVKSdBxZg,Aldertos Fresh Mexican Food,2900 Clear Acre Ln,Reno,NV,89512,39.5576310319,-119.7913073049,3.5,238,1
SlLfWzeYOrVBxCd-0QILZQ,The Boiling House,"1990 Marlton Pike E, Ste 10",Cherry Hill,NJ,08003,39.8996609,-74.9532997,4.0,238,1
xIeHG2cqw7XEqy_M82zA7g,Audubon Aquarium of the Americas,1 Canal St,New Orleans,LA,70130,29.9510013,-90.0630718,3.5,523,1
CQgupIpIbkyiVLUEcMIRCA,Beiler's Donuts,3900 Chestnut St,Philadelphia,PA,19104,39.954973,-75.200154,4.5,231,1
wjZwXKDiFBQXlO8-TjQTXA,Tujague's Restaurant,429  Decatur St,New Orleans,LA,70130,29.9550333978,-90.0645679,3.5,591,1
r6osq1ta_YFXdmNb34lv8A,Dixie's Dog House,250 107th Ave,Treasure Island,FL,33706,27.7705432,-82.7665729,4.0,107,0
k2DujxP1NcGWW5Z5_dDg7w,Kabuto Japanese Steak Seafood & Sushi,908 Conference Dr,Goodlettsville,TN,37072,36.3230471,-86.7018219,3.0,146,1
juWaIwWHsdtM4rFPmolRVQ,Fiesta Chicken,10689 Ustick Rd,Boise,ID,83713,43.6334979,-116.3155716,4.0,144,1
pWlZTKoNYfJ4eXJrABIIpg,The Optimist - Nashville,1400 Adams St,Nashville,TN,37208,36.181453,-86.7841684,4.5,220,1
2aZNVfzU-3672SjRHnPoOA,Clementine's Naughty and Nice Creamery,730 Demun Ave,Clayton,MO,63105,38.637779,-90.30772,4.5,254,1
E83s5Pi-65DZJ8_HY4JLCQ,Bellhop Moving,1809 Primrose Ave,Nashville,TN,37212,36.120327,-86.7992986,3.5,108,1
UV3QgpYgHO0GGTYPPr4v3g,Taqueria Del Sol,2317 12th Ave S,Nashville,TN,37204,36.1265807821,-86.7895035761,4.0,353,1
XnQ84ylyAZwh-XfHGGNBbQ,Coop's Place,1109 Decatur St,New Orleans,LA,70116,29.9601574248,-90.0598538142,3.5,3157,1
mBXxL7776PIpye9GRDLu6Q,Apolline Restaurant,4729 Magazine St,New Orleans,LA,70115,29.920684,-90.105841,4.5,406,1
v8IbZ6wcvdyGqWpbDKDvfA,YO! Sushi,"International Plz, 2223 N Westshore Blvd",Tampa,FL,33607,27.964536,-82.520756,4.0,121,0
NfOnxD8NT4UQmSfBY6iqng,The George Jones,128 2nd Ave N,Nashville,TN,37201,36.1629827,-86.7753746,3.5,316,0
tYCok-NtWvg8_k7woeB83w,Grand Lux Cafe,"2000 Rt 38, Ste 1072, Cherry Hill Mall",Cherry Hill,NJ,08002,39.940242695,-75.0248415088,3.5,422,0
93UD654AB6IzMPFlQgwfOg,Chuy's,25750 Sierra Center Blvd,Lutz,FL,33559,28.1955199,-82.3910774,4.0,436,1
CTvHlHQ4jzRO8gkkl4O8zQ,Pizzeria Tivoli,5861 S Kingshighway Blvd,Saint Louis,MO,63109,38.5769948214,-90.2833217382,4.5,191,1
tvBz80VKCtWAVbA6VmJufg,Four Points by Sheraton Philadelphia Airport,4101A Island Ave,Philadelphia,PA,19153,39.8915307681,-75.2326749154,2.5,138,1
WDXC3W5lDt2pK2qvw6ds3Q,Tortugas Mexican Eatery,305 2nd Ave,Collegeville,PA,19426,40.180349,-75.454371,3.0,106,1
QoezRbYQncpRqyrLH6Iqjg,La Segunda Central Bakery,2512 N 15th St,Tampa,FL,33605,27.9658653,-82.443197,4.5,339,1
jXrhIVKcJ-upvglUmfC1pA,Clover Grill,900 Bourbon St,New Orleans,LA,70116,29.9602815,-90.0640023,3.5,768,1
Mr7Aov2n7wPCpwaUxk8lCw,Mango,1001 Washington Ave,Saint Louis,MO,63101,38.631361,-90.193938,4.0,939,0
y4VFp6qk_EFgNy9yKFlj3Q,Moustaki Authentic Gyros,161 N 21st St,Philadelphia,PA,19103,39.957553,-75.17403,4.0,147,1
RMBFktG5V1fmCTJSisLvMg,Joseph Giannone Plumbing Heating & Air Conditioning,1142 E Passyunk Ave,Philadelphia,PA,19147,39.934754,-75.1580753,3.0,101,1
0iNfZDJgbBq8svJz0C-LvQ,Arni's,1691 W Curry Rd,Greenwood,IN,46143,39.599389,-86.1583938,3.5,129,1
aREOVt958pzJsuNmX1-LUQ,Twenty Tap,5406 N College Ave,Indianapolis,IN,46220,39.8512477766,-86.1459809986,4.5,574,1
lH3tplAcbNrNL0nJoyXCNA,Keke's Breakfast Cafe,13614 Bruce B Downs Blvd,Tampa,FL,33612,28.0714552,-82.4268348,4.5,163,1
5in65oQ8raShdBAqiCLx1w,Pie Hole Pizza,205 N 8th St,Boise,ID,83702,43.6167284,-116.202654,3.5,171,1
jaOOn1Y3vFhKgQRJjfSdkw,Jasmine Thai Restaurant,13248 N Dale Mabry Hwy,Tampa,FL,33618,28.068673,-82.5068579,3.5,167,1
qH13binX4ke_R1j3QNXccw,Mandola's Italian Kitchen,"12926 US Hwy 301 S, Bldg 100 Ste C",Riverview,FL,33578,27.8005846822,-82.3340518546,4.0,119,1
pzfHUtL1Z6e17IlTtuBMUw,Pelican & Pig,1010 Gallatin Ave,Nashville,TN,37206,36.189262,-86.746326,4.0,119,1
FDTwPQ4CNWEOY0rfh4eTzQ,ParadICE Hawaiian Shave Ice & Ice Cream,"11 W De La Guerra St, Unit A, Paseo Nuevo Mall",Santa Barbara,CA,93101,34.419198636,-119.6996241767,5.0,192,1
GU8Qq1UpVEStKkNRYe-BZw,Black Market,922 Massachusetts Ave,Indianapolis,IN,46202,39.7802222,-86.1418027,4.0,348,0
5Rh-kcT1hCCpYAz7-JwLaQ,Molly Maguire's Irish Restaurant And Pub,197 Bridge St,Phoenixville,PA,19460,40.1340769052,-75.5161111377,3.0,154,1
oDETvkVkHw7CjZj7ZOZFOQ,Cajun Mike's Pub & Grub,116 Baronne St,New Orleans,LA,70112,29.9537303,-90.0711912,4.0,757,1
tc_nZBQ46584iOXQgdlBtg,Tacos el Rey,5100 Mae Anne Ave,Reno,NV,89523,39.5305587,-119.8654079,3.5,227,1
xne1l7I2166PbF59qQUxGg,Next Door American Eatery,4573 N College Ave,Indianapolis,IN,46205,39.8394748,-86.1446959,4.0,443,1
0KqHMwQIMUFys9rqlT3m2Q,Squealers Award Winning Barbeque,390 E High St,Mooresville,IN,46158,39.6097090884,-86.3655099938,3.5,119,1
TIoiB8PYw4GjAqDiP-iJKg,Cross Culture,64 W State St,Doylestown,PA,18901,40.3090783,-75.1319856,4.0,116,1
nl60kTdUtKs8L_DfnD4i7A,George Steinbrenner Field,1 Steinbrenner Dr,Tampa,FL,33614,27.9798272,-82.5071038,4.0,103,1
Bcr1rVZLWN_6azP0KL1Qug,Barnaby's of America,1901 Old W Chester Pike,Havertown,PA,19083,39.9765489,-75.3349776,3.0,125,1
vfsLSYAE-ho5UH45IsJj_Q,Vino E Pasta,3603 W Gandy Blvd,Tampa,FL,33611,27.894052,-82.50242,4.5,271,1
zHoIBH6nIh_Hs8YkSJii5Q,The Cupcake Collection,"2917 Magazine St, Ste 102",New Orleans,LA,70115,29.9255410053,-90.0841179653,5.0,118,1
rwZ_nSNpRtkgzuc2ah27wA,BJ's Restaurant & Brewhouse,5510 E Broadway Blvd,Tucson,AZ,85711,32.221197,-110.8747117411,3.0,380,1
9EoNx6yHsmiCe43XscJzDA,Fresh Kitchen,4616 W Kennedy Blvd,Tampa,FL,33609,27.9445438,-82.5228421,4.5,241,1
q9JGf4DBh2mN5Qo6XPXBeQ,Pho 1,3665 East Bay Dr,Largo,FL,33771,27.9150364,-82.7491266,4.0,128,1
o2i4AvqF6Q9lWK-wksxzuw,Legal Sea Foods - King of Prussia,680 W Dekalb Pike,King of Prussia,PA,19406,40.088868896,-75.3861084644,3.5,377,1
QpK7QS5rluvEGeNB8LM_UA,Ravanelli's,26 Collinsport Dr,Collinsville,IL,62234,38.68493,-90.01656,3.5,115,1
oWTakomAvtGSB85UwnIOSA,Bottom of the Cup Tearoom,327 Chartres St,New Orleans,LA,70130,29.9548508,-90.0663285,3.5,141,1
llLvHJgkKQNfzgtKf6p3BQ,Dunedin Brewery,937 Douglas Ave,Dunedin,FL,34698,28.0139804694,-82.7877538767,4.0,590,1
ILWv3aMVbZUMjcMSTGgStQ,Good Bird,5031 Freret St,New Orleans,LA,70115,29.9350919,-90.108873,4.0,110,1
xHdekRjTK93GR2AgtvrtgQ,Growler's Taphouse,8275 N Silverbell Rd,Tucson,AZ,85743,32.3573574258,-111.1140279582,3.5,149,1
jczcj0QDuSF8L0eHgc8b8Q,Pho Barclay,65 Barclay Pavilion,Cherry Hill,NJ,08034,39.9103788219,-74.9972194317,3.5,201,1
GmX8VRPm6U_AUDhVYNrasQ,LuXe Nails,"2902 W 86th St, Ste 50",Indianapolis,IN,46268,39.9125685,-86.2117997,4.0,122,1
9BRogQ1ZU-agQCPG-a4zIg,Groom,1324 Locust St,Philadelphia,PA,19107,39.948061518,-75.1636534558,4.5,172,1
eUAaIuf6oa_gHnI2j0ep3Q,Pie and Plate Cafe,43 N Main St,Ambler,PA,19002,40.1549757,-75.2247744,4.5,164,1
mwZNtMYxbubcBq2nc9XG2A,Mandarin House Restaurant,8004 Olive Blvd,University City,MO,63130,38.672765,-90.3419772,3.5,181,1
lUiY3W4JOdpWBXq32KvDGw,Waffles on Maple,"4650 W Esplanade Ave, Ste 100",Metairie,LA,70006,30.0159246988,-90.1901310682,3.0,139,1
ghsaIqQ1xY3cWtWWJ4QW5w,Old Granite Street Eatery,243 S Sierra St,Reno,NV,89501,39.5225326,-119.8130517,4.0,742,1
742hWlXisoSxhGJmeJNkrg,Indianapolis Zoo,1200 W Washington St,Indianapolis,IN,46222,39.767444,-86.18073,4.0,365,1
Ln_LEQt8yx1GX5hHuLR8qA,Zushi Dozo,1892 Marlton Pike E,Cherry Hill,NJ,08003,39.9036902,-74.9677072,4.5,164,1
Rt4xYQBWC8i2xqLp9dP7XQ,Jim's Steaks,469 Baltimore Pike,Springfield,PA,19064,39.9201724,-75.3228835,3.0,105,1
rfTMA-0we0qbNp3iBgGWTw,Ubiq,1509 Walnut St,Philadelphia,PA,19102,39.949848,-75.1663717,3.0,103,1
oH7kVPQy98Dvh1dNVvkwpw,Ichiban Seafood Buffet,910 E Woodland Ave,Springfield,PA,19064,39.9155180387,-75.3336098388,3.5,189,1
rvbf15JuvNJyhO2Q5zIapQ,Blue Cat Restaurant,1921 Fairmount Ave,Philadelphia,PA,19130,39.967476,-75.1694289,4.0,210,0
_L7J17x-lh4OSxvluqrP7Q,Cracker Barrel Old Country Store,6150 Lazy Days Blvd,Seffner,FL,33584,28.0067,-82.3053664258,3.5,120,1
bFln2Z17KfFIcEz4TRaHjw,Iron Hill Brewery & Restaurant,"Huntingdon Valley Shopping Ctr, 785 Huntingdon Pike",Abington Township,PA,19006,40.0885697,-75.0926421,4.0,223,1
wYYsmF6begc6ZcnPGwF9NQ,Jun Dynasty Chinese Restaurant,2933 E Grant Rd,Tucson,AZ,85716,32.2510856991,-110.9278337595,4.0,400,1
EP2jFD3aGoSBCWb7irY5-w,Queen of Sheba,11001 N 56th St,Temple Terrace,FL,33617,28.048786,-82.3927705,4.0,361,1
XJEFTd2db-PGXPgFyl3Qkw,Thai Recipes Restaurant,"404 E Thompson Rd, Ste G2",Indianapolis,IN,46227,39.6935748211,-86.1499902447,4.5,286,1
PI0aGMmM33x1QF69JUsaUw,The Train Shed,201 S 18th St,St Louis,MO,63103,38.6277735,-90.2079922,3.5,137,1
R2I0DYnyEjn-Eu5eweuOQQ,Good Friends Bar,740 Dauphine St,New Orleans,LA,70116,29.9599591,-90.0657543,4.0,131,1
ZB61gANpKABguPC7kG6bzA,Vallarta's Mexican Resturant,22948 State Rd 54,Lutz,FL,33549,28.1840782971,-82.4359361635,3.0,112,1
lS42krxXMm-HIk7dntRsKQ,Pattaya,4040 Locust St,Philadelphia,PA,19104,39.9529055,-75.204785,3.5,327,1
S98oLw5Oi-_aD-o9TNVGbg,Brazikat,172 Carondelet Plz,Saint Louis,MO,63105,38.6482254,-90.3329096,3.0,104,0
q1VOESxR99qJvpubnNxyJQ,Caribou Cafe,1126 Walnut St,Philadelphia,PA,19107,39.9487531332,-75.1600949582,3.0,341,1
prZjGYZFtZ05e80cSEYyjg,White Dog Cafe - Wayne,200 W Lancaster Ave,Wayne,PA,19087,40.04374,-75.391408,4.0,640,1
EIKbEHnsVg6dcsWopW4lkg,Lindy's On 4th,500 N 4th Ave,Tucson,AZ,85705,32.228073,-110.965406,4.0,577,1
fOTDwlJdgwuGTbYrjt_88Q,Nala Indian & Thai Cuisine,126 Woodcutter St,Exton,PA,19341,40.0228858,-75.6294011,3.5,173,0
KH4fWEKEnFNB7uTVIDUOeQ,The CPAP Shop,159 Cooper Rd,West Berlin,NJ,08091,39.8160609151,-74.9220068116,4.0,108,1
UhjfJpaAzgSYrTZ_dMMF1Q,Philly Diner,51 Industrial Hwy,Essington,PA,19029,39.8674080649,-75.3082371545,2.5,129,1
EZc2myE2mYk2h9JK9qu8gw,Finney's Crafthouse,"35 State St, Ste A",Santa Barbara,CA,93101,34.412764,-119.6903388,4.5,1047,1
jp8K7RPJc3IwwkDYgfAZ5Q,Crooked Tree Coffeehouse,559 1st Capitol Dr,Saint Charles,MO,63301,38.7815814,-90.4888584,3.5,120,1
2HMf3ewAeMaeDsadJuL8DQ,Old Absinthe House,240 Bourbon St,New Orleans,LA,70130,29.9553128,-90.0684542,3.5,503,1
VaHG9BwrSZ-oNv0mGsTgiQ,First Watch,1423 Old York Rd,Abington,PA,19001,40.12301,-75.11621,3.5,153,1
I26ji6UStFLiMVTTYdOr_w,Residence Inn by Marriott New Orleans Downtown,345 St Joseph St,New Orleans,LA,70130,29.943525,-90.068153,3.5,108,1
Gw7UW0E2BguzL9suQnwDeg,SPOT Gourmet Burgers,2821 W Girard Ave,Philadelphia,PA,19130,39.9747101233,-75.1825701445,4.5,282,1
mNXfzN6L3GPJdUJXbSsmfw,Pietro's Coal Oven Pizzeria,121 South St,Philadelphia,PA,19147,39.941209,-75.144858,4.0,216,1
j4KA-BujEH7xmG6bD5E-gQ,Sacred Pepper,15405 N Dale Mabry Hwy,Tampa,FL,33618,28.0921058107,-82.5018056153,4.0,548,1
YWDbZ8lPZDwZfSjcgJifeQ,The Westin Tampa Waterside,725 South Harbour Island Blvd,Tampa,FL,33602,27.938413,-82.454917,2.5,244,1
2UZvVu5v5SQ_xrPwQAtvJw,Tacos 46,3089 N High School Rd,Indianapolis,IN,46241,39.8100961,-86.270022,4.5,160,1
qvqX_8btlzurBskIMpVtmw,Bawarchi Indian Cuisine,"5245 Vista Blvd, Ste F-1",Sparks,NV,89436,39.5875813,-119.7152294,4.5,209,1
Duf-k9b1xpuK33BGCLWQ6w,Quetzally,1225 Fitzwater St,Philadelphia,PA,19147,39.9416062,-75.163026,4.0,241,1
rQgvzje411OZY2p9fLdycQ,Copper Monkey Grill,725 Conti St,New Orleans,LA,70130,29.9561265,-90.0673167,4.0,320,1
4bOqibZuKDbnOa-K0kM4Sg,Flying Saucer Draught Emporium,"111 10th Ave S, Ste 310",Nashville,TN,37203,36.156701,-86.783869,4.0,484,0
PcX8zGIJ_XHTAQAcEOwhLw,Hyatt Regency Clearwater Beach Resort & Spa,301 S Gulfview Blvd,Clearwater,FL,33767,27.9736044766,-82.8289240509,4.0,213,1
j6dvIfAzbHccoySvaqjT4w,Burger 21 - New Tampa,20304 Trout Creek Dr,Tampa,FL,33647,28.1633912,-82.3543013,3.5,236,1
cg4JFJcCxRTTMmcg9O9KtA,Ava,718 S Howard Ave,Tampa,FL,33606,27.936236,-82.482862,3.5,544,1
P5yulkthm6nyunOLt-rEVg,Jack's Barbershop,"222 E Market St, Ste 12",Indianapolis,IN,46204,39.769031,-86.153373,4.5,103,1
D5iuqgLt-M6INWydvMKUxw,Squealers Award Winning Barbeque,5515 W 86th St,Indianapolis,IN,46268,39.909934,-86.258193,4.0,283,1
G2_1Q5TnESlgdQDufHtqIw,Steve's Grilled Cheese and Quesadilla Company,22 High St E,Glassboro,NJ,08028,39.7023535,-75.111095,4.0,101,1
vEdNsFx-ozYFNxR9XZQ5AA,Bar Louie,600 Rock Hill Dr,Bensalem,PA,19020,40.1372126335,-74.9582818151,3.0,300,0
MmN1qpG224QxOeq72DpN2g,Aldo's Italian Restaurant,1031 State St,Santa Barbara,CA,93101,34.4220883483,-119.7029963924,3.0,311,0
UmjITdXHhEF46ho6IhaGQg,Dave & Buster's,"1200 Poydras St, Unit 601",New Orleans,LA,70113,29.9505161935,-90.0762040213,2.0,351,1
yEKmlxvhA2EWrMLbwWi7Hw,Saffron Indian Kitchen,145 Montgomery Ave,Bala Cynwyd,PA,19004,40.0055615,-75.2404712,4.0,226,1
5YkucjpFYEhg4gsWU4B1hQ,Little Pete's Restaurant,219 S 17th St,Philadelphia,PA,19103,39.949326,-75.169019,3.5,324,0
1s8WJM2zbUScgZ-7HlMXuA,Two Girls Pizzeria,"140 W Duval Mine Rd, Ste 108",Green Valley,AZ,85614,31.9050099,-110.9902482,3.5,241,1
xH9Z40Z66Q60vxbB70XiMw,Little Donkey,"1120 4th Ave N, Ste 103",Nashville,TN,37208,36.1756379254,-86.7865289048,3.5,212,0
X6ld51FqCHsXU61ecrVB2w,Lil Gio's Taqueria,336 S Main St,Saint Charles,MO,63301,38.778842,-90.4823746859,4.0,102,0
eHRzuUXA2jrR99ecioWU4g,Union Ale,214 State St,Santa Barbara,CA,93101,34.414427,-119.691952,3.5,207,0
SDL247FlOnScJfuNjZESxg,Twenty Manning,261 S 20th St,Philadelphia,PA,19103,39.9486084,-75.1740323,3.5,421,1
nlVLzktT0RfgSw-ZL4qPRA,Walt'z Fish Shak,224 Boardwalk Pl,Madeira Beach,FL,33708,27.785864091,-82.7812635899,4.0,340,1
hVKH5oED9NgGaZeIiF547A,Backyard Bowls,"3849 State St, Ste I157",Santa Barbara,CA,93105,34.438921691,-119.7492354843,4.0,214,1
wBa-Abx8y5SLOqbohCA4nQ,New Orleans Famous Beignets And Coffee,620 Decatur St,New Orleans,LA,70130,29.9562672,-90.0626983,4.0,239,0
7tE9fLBPwXvoxkykGJPbEw,Noodles & Company,2116 Green Hills Village Dr,Nashville,TN,37215,36.1085807032,-86.8132267137,3.0,143,1
5C3Xq33S5VgLun8vxTxMqA,Two Chicks Walking Tours,1128 Josephine St,New Orleans,LA,70130,29.930713,-90.076524,5.0,342,1
1LQipKM90ih4RcK2LxnB5w,Veekoo,564 Lancaster Ave,Berwyn,PA,19312,40.0476333,-75.4381438,4.0,113,1
ZmvCkhsCOWqA7ikXlbIr2g,Vals,4632 Freret St,New Orleans,LA,70115,29.9348117,-90.1061241,4.0,116,1
T_HJvjWYGBtZWmRPzNJeBw,High Velocity,10 South West St,Indianapolis,IN,46204,39.766017,-86.1674605,3.5,267,1
ak7Rmz3Mu48qfqnw4ExiTA,The Buffalo Spot - Tucson,760 N Tyndall Ave,Tucson,AZ,85719,32.2313572,-110.9576257,3.0,101,1
91tNJxdZJEqWs3qHU2nXPQ,Peg's Cantina and Brew Pub,3038 Beach Blvd,Gulfport,FL,33707,27.739433,-82.707511,4.0,146,0
2137bKyaZiIkiK9wG6wr3Q,Jeremiah's Italian Ice,825 E Bloomingdale Ave,Brandon,FL,33511,27.89315,-82.2725706883,4.5,130,1
uDQgmudYDKiB6n4vwbEeDg,Chrysalis,9040 Carothers Pkwy,Franklin,TN,37067,35.9565328581,-86.8027199385,4.5,112,1
8pGeXrLvLR5lq6zigbyBDw,Jack Cawthon's Bar-B-Que,1601 Charlotte Ave,Nashville,TN,37203,36.159367,-86.796087,4.0,243,1
ghFNIv9_Bde6uquScRZD7g,Little Baby's Ice Cream,2311 Frankford Ave,Philadelphia,PA,19125,39.9807047287,-75.1282343498,4.0,288,0
-0G_6-KFGpCpxTUlVXCMYQ,Gio Taco,350 E Congress St,Tucson,AZ,85701,32.2212936123,-110.9656982602,3.5,148,0
HNI6qvswn1KYybgJVqUWGg,Marinucci's Deli - Mayfair,2852 Saint Vincent St,Philadelphia,PA,19149,40.0415039,-75.0541217,4.5,130,1
MuQ-irulfi6V8N9Ka6XBHQ,Rib Rack,2100 Tyson Ave,Philadelphia,PA,19149,40.0425044,-75.063225,4.0,133,1
MNnCUYhi8JGEF7isbLXAFg,Form & Function,511 W Broad St,Boise,ID,83702,43.6117234652,-116.2027365874,4.0,101,1
DHVwSH_tR0kPWcAMKH48uA,Hutch's Car Wash,6355 S Mccarran Blvd,Reno,NV,89509,39.4780927,-119.7914993,2.0,284,1
YNzyPt4RdhDGUDlwxFtTQQ,Zavino,3200 Chestnut St,Philadelphia,PA,19104,39.9536479551,-75.1891877265,4.0,314,0
zEb712Oj0qwruwFIxJs8HQ,Ralph's Great Divide,743 E New York St,Indianapolis,IN,46202,39.7708853,-86.1438696,4.5,142,1
HKdAOvtDv47zPjceCjbz4Q,Le Bayou Restaurant,208 Bourbon St,New Orleans,LA,70130,29.9549810279,-90.0688147545,4.0,640,0
JaGiya5J9uPb1znq-B9X5A,Thai Basil,653 Haddon Ave,Collingswood,NJ,08108,39.9168964,-75.0701039,4.0,140,1
HCqmx4ENAZ76SAjoalj-MQ,Puckett's Grocery & Restaurant,120 4th Ave S,Franklin,TN,37064,35.9237549,-86.8700112,4.0,850,1
zjTBfbvbN2Ps6_Ar0w-fuQ,Hinge Cafe,2652 E Somerset St,Philadelphia,PA,19134,39.9792581,-75.1121554,4.5,292,1
uPpubOh_6AEJ84VCl5OXtQ,Top Nails,540 E Girard Ave,Philadelphia,PA,19125,39.9710835,-75.1271998,4.0,176,1
bJz0pdeL1ubxzLZNzECOqw,Cross Grain Brewhouse,"3201 W Airport Way, Concourse B, Boise International Airport",Boise,ID,83705,43.567541,-116.220471,3.5,133,1
lWBBSxkvozGBXk0gC2SgCA,Yen Ching Restaurant,1012 S Brentwood Blvd,Saint Louis,MO,63117,38.6373465,-90.3451989,3.5,132,1
9xywJ1otUCj1kjiUGHSJCg,Red Robin Gourmet Burgers and Brews,13001 Manchester Rd,Des Peres,MO,63131,38.6030371,-90.4594141,3.0,110,1
S6tR7vBAg-3b9mGLB13-Ug,Fiddlehead Fern Café,4066 Russell Blvd,St Louis,MO,63110,38.6142426192,-90.250708149,4.5,163,1
0ak-7uV9Nb7nF_l-mMCysA,Oishii Poké,938 Arch St,Philadelphia,PA,19107,39.9532717,-75.1562016,4.0,228,1
zqN7Ms_JtF9aIGw5DQsUWA,Total Wine & More,2100 Rte 38,Cherry Hill,NJ,08002,39.9421155782,-75.0176190021,4.0,102,1
2i6DI1RBQIaD5DxHYHot7g,Pennsylvania Convention Center,1101 Arch St,Philadelphia,PA,19107,39.954904,-75.159982,3.5,130,1
zS7ygYwgDMh5HSDzG3oShA,Naga Tea,10950 N 56th St,Temple Terrace,FL,33617,28.0484523138,-82.3941698669,4.5,185,1
6imUPmHGgo9uknaoJXv79A,La Esperanza Restaurant & Bar,40 E Gibbsboro Rd,Lindenwold,NJ,08021,39.8137448,-74.9843233,3.5,368,1
UbFkHiEt9S-0mUL3RQ5Ghg,Turkey and the Wolf,739 Jackson Ave,New Orleans,LA,70130,29.9272091,-90.0742935,4.5,652,1
JVdRFZ0fZmd36f-s3FtS5A,Choice Greens,2829 E Speedway Blvd,Tucson,AZ,85716,32.236452,-110.9303361,4.0,273,1
Qm8pSLYuVS7eIyOx5YsWBw,Glory Beer Bar & Kitchen,126 Chestnut St,Philadelphia,PA,19106,39.9481792,-75.1435446,4.5,203,1
eb4QwETR0zK4De-ar8XO6Q,Nana's Kitchen,8225 N Courtney Page Way,Tucson,AZ,85743,32.356607,-111.095183,4.0,251,1
OOfY8bhTuC5A4qbdn8wFBA,Desi Village,4527 Baltimore Ave,Philadelphia,PA,19143,39.9491434,-75.2142152,3.5,113,1
0aflm9H-XNg8eUAoeWmh9Q,P.F. Chang's,"500 Route 73 S Spc G1, Spc G1",Marlton,NJ,08053,39.8802878616,-74.9210900019,3.0,260,1
iANE0gtS_Vpb7BJ_2mEi_Q,Brick & Brew,31 E Eagle Rd,Havertown,PA,19083,39.9884577,-75.3098886,4.0,511,1
p7tSGmWpFV246aYhwODgBg,O Sushi Restaurant,4689 E Speedway Blvd,Tucson,AZ,85712,32.2369439,-110.8929649,4.5,199,1
tmq5EHdmWm5GG0KkUw3nQg,Hot Diggity Dogs,614 Ewing Ave,Nashville,TN,37203,36.1524919,-86.7755849,4.5,157,0
nnZ1l_f443CHSP1udiRUew,Formosa Seafood Buffet,6304 E 82nd St,Indianapolis,IN,46250,39.9064864903,-86.0597939405,2.5,169,1
vpQWbT7ZKcHMVKxEVR8Cuw,Benchmark Bar & Grill,117 2nd Ave N,Nashville,TN,37201,36.162408,-86.775813,4.0,109,1
p4lVltKOVX6-XvCVCXmc0Q,Lilly's On the Canal,2 Canal St,Lambertville,NJ,08530,40.3661692,-74.9459709,3.0,140,0
2VFytje8_davOPXcHFx_ow,Kebab,2315 St Claude Ave,New Orleans,LA,70117,29.969115,-90.053999,4.0,272,0
Wkjt6DUTGX1zKpX0OnsvcQ,MIGA,211 S 15th St,Philadelphia,PA,19102,39.949043,-75.1659177,3.0,179,0
1hqfs-7ThL9mTPdvW-5DUg,Tumamoc Hill,W Anklam Rd & Tumamoc Hill Rd,Tucson,AZ,85707,32.2261161804,-111.0009613037,4.5,127,1
1MVMKUvZfWwIqkhxP3rYvQ,Indian Garden,676 Stoney Hill Rd,Yardley,PA,19067,40.2210983,-74.8727928,4.0,356,1
htDRn1cXDyimxz6BJWB3LQ,Josephine Estelle,600 Carondelet St,New Orleans,LA,70130,29.9483315,-90.0718664,4.0,364,1
oB0D84FLq6h3WcWlN7lIUg,The Vanguard,6319 Guilford Ave,Indianapolis,IN,46220,39.8703503,-86.1426613,4.0,108,0
g5W4j6-NcwVeOwQyMYUi6Q,Embers Ski Lodge,2410 12th Ave S,Nashville,TN,37204,36.1259483445,-86.7891390572,3.5,233,1
hkaS8jWbnK0R5uPzQjTZwQ,Illinois Street Food Emporium,5550 N Illinois St,Indianapolis,IN,46208,39.8537016,-86.1597161,4.0,142,1
sSKelg9o_4KxgCMT3BqnCA,Red Lobster,6410 E 82nd St,Indianapolis,IN,46250,39.905847,-86.057396,3.0,102,1
lk9IwjZXqUMqqOhM774DtQ,Caviar & Bananas,2031 Broadway,Nashville,TN,37203,36.1483712,-86.7988947,3.5,159,0
AzJxYiN1OmEphaCPMP2wWA,Wei Hong Seafood Restaurant,7740 Olive Blvd,Saint Louis,MO,63130,38.6719532,-90.3373726,3.5,123,1
b05wG00_-dkmREglAsCbfA,Four Green Fields,205 W Platt St,Tampa,FL,33606,27.9419344,-82.4615883,4.0,218,0
vcmdiroPjx3ufGjaxa-YCQ,Fortune Palace,1282 Disc Dr,Sparks,NV,89436,39.5769010819,-119.7220632538,4.0,187,1
ViZaLnjXlHO6cb3D7MfKmw,Railroad Street Bar and Grill,36 Railroad St,Linfield,PA,19468,40.2105693,-75.5664925,4.0,291,1
c-iKAO2GBzSKjm7y1Oljcw,Red Fish Grill,115 Bourbon St,New Orleans,LA,70130,29.954468,-90.0696096,4.0,1984,1
pW5DXTpKnw3y0fopipbJVg,Landmark Americana Tap & Grill - University City,3333 Market St,Philadelphia,PA,19104,39.9559586568,-75.1906506718,3.0,394,1
rPFVu8iYLeyvy_qhY4U-Hw,Dish Cafe & Catering,855 Mill St,Reno,NV,89502,39.5258129,-119.7992921,4.5,227,1
3lQsvHIvKFXa85WCt_p0GQ,Lotus Farm To Table,112 W State St,Media,PA,19063,39.9179653,-75.391609,3.5,122,0
_YfdFmhYhaelhlQXoGCktA,Petite Amelie,900 Royal St,New Orleans,LA,70116,29.9597003,-90.0631485,4.0,150,0
A9NqmUP1L3eU40a64q5Kdw,Kimpton The Goodland,5650 Calle Real,Goleta,CA,93117,34.4415625291,-119.8209244457,3.5,444,1
wopwoiKIllIzcggK7HkTmw,The Gold Standard Cafe,4800 Baltimore Ave,Philadelphia,PA,19143,39.9481839,-75.2196691,3.0,312,1
nTSXLSVKq1PhrcGFzjgiaw,Gerst Haus,301 Woodland St,Nashville,TN,37213,36.1708706,-86.7683113,3.0,177,0
hXENwSCtd8pdBrnN8XkXyA,Renaissance St. Louis Airport Hotel,9801 Natural Bridge Rd,St. Louis,MO,63134,38.73212,-90.346234,3.0,163,1
gdo6ygbZlpZY1mj9P0sxLQ,Marathon Grill,"1818 Market St, Ste 3",Philadelphia,PA,19103,39.9529992561,-75.1714430727,3.0,154,0
2JdCmdTOWBvf-DQ2xaVpJQ,Bonu Cafe Express,320 E Lincoln Hwy,Exton,PA,19341,40.0286656,-75.6202405,4.5,105,1
xhWSGL8AfOaYLJj01-m-wQ,NECTAR,1091 Lancaster Ave,Berwyn,PA,19312,40.044253,-75.450316,4.0,442,1
hVwmnQAgZpVbEoWayzASQg,Tivoli Gardens,"Eldorado Hotel Casino, 345 N Virginia St",Reno,NV,89501,39.529446,-119.814496,3.0,100,0
Pc5O9YKDWjLZdQWq8gl_NA,Nudo House,6105 Delmar Blvd,St Louis,MO,63112,38.6555,-90.29668,4.5,103,1
U_Sw9VC6mCyTbUo2mejS0A,Royal Boba,"265 White Bridge Pike, Ste 101",Nashville,TN,37209,36.1431258856,-86.8581593239,4.5,229,0
tjDRn-52X7f5jepGZQc4-Q,Colonial Diner,924 N Broad St,Woodbury,NJ,08096,39.8489916,-75.1440033,3.5,153,1
-x2B-rrTqqLMrcnzYuQlpw,Poké Falls,3747 Bruce B Downs Blvd,Wesley Chapel,FL,33544,28.2117427,-82.3543521,4.5,107,1
RMjHlAejNrLHzF4-G4uyng,Brady's BBQ,340 Main St,Safety Harbor,FL,34695,27.9906356,-82.6909103,3.0,160,1
sor6oj-nuslOcSx7di4urA,Santa Barbara Fish Market,"117 Harbor Way, Unit A",Santa Barbara,CA,93109,34.4037491,-119.6935611,4.0,327,1
qV325HCv3cZKgdgkMJObNQ,Landmark Americana Tap & Grill - West Chester,158 W Gay St,West Chester,PA,19380,39.9592657,-75.6074224,2.5,116,0
_NYc2bEyvzleMwhhNRr61Q,Nadoz Bakery Cafe,12 The Blvd,St. Louis,MO,63117,38.6348304784,-90.3449437651,3.0,125,0
uYUsK2muRiy0ahFZchlVEw,Bourbon O Bar,717 Orleans St,New Orleans,LA,70116,29.9590515552,-90.0651563866,4.5,225,1
TyhguONKc8i6M7wP09nTbA,Hibiscus Cafe,4907 Catharine St,Philadelphia,PA,19143,39.9483933,-75.2215836,4.5,150,1
c6fWBSm-EHVwyFszTC5Mhw,Del Frisco's Grille,"1201 Demonbreun St, Ste 104",Nashville,TN,37203,36.154392,-86.7863151,3.5,241,1
tvbFcYCEQWc76CUK-nBw8w,Seoul Garden,"4928 Edmondson Pike, Ste 101",Nashville,TN,37211,36.075699,-86.727749,3.5,166,1
bo6oxshUZdNAi-6zuumOtQ,Larry H Miller Dodge Ram Tucson,4220 E 22nd St,Tucson,AZ,85711,32.2057055,-110.9019576,2.0,130,1
kfW3-LmZlKrXq3RndVXxdg,Pho Ben City,1844 Old York Rd,Abington,PA,19001,40.1367279315,-75.1142700389,4.0,124,1
DIG_4Jkj7YxgK7vha3XO6A,Red Lobster,"9140 Roosevelt Blvd E, ACROSS THE STREET FROM NORTHEAST SHOPPING CENTER",Philadelphia,PA,19115,40.075949,-75.034346,2.0,113,1
tY4ndNCyfTACnF0s1BqE-A,Burger Monger,2454 McMullen Booth Rd,Clearwater,FL,33759,28.0116642507,-82.7079487615,3.5,155,1
Ye5nmTmZ7cL7BQshqZeIWQ,McClure's,3001 Tchoupitoulas,New Orleans,LA,70115,29.9200402,-90.0812295,4.0,276,0
SLuak4P9JyB_T6DsksOIIQ,Smokin' Pig BBQ,3834 US Hwy 301,Riverview,FL,33578,27.9140393,-82.3471551,3.5,125,1
FMLrzIBYlEB70KjwTMQMEw,Angry Crab Shack & BBQ,1365 W Grant Rd,Tucson,AZ,85745,32.24980006,-110.99402113,3.5,374,1
-HTra3AbYlsjx1VIlsIJbw,Green Chili,"707 Rivergate Pkwy, Ste A",Goodlettsville,TN,37072,36.3055002,-86.7053867,4.5,207,1
Z3nM2-WjfX5CMWqdZ8n5Dg,Greene Street,700 South St,Philadelphia,PA,19147,39.94291,-75.154138,3.0,124,1
CGVpuQ3FpPWyYFQJQlsjLQ,Mole y Abuela,1202 N Franklin St,Tampa,FL,33602,27.9536077,-82.4604458,4.0,201,0
bP8Y5cHMda64Z3tGA-cYzw,Glossy 130 Nails & Spa,35817 US Hwy 19 N,Palm Harbor,FL,34684,28.0980134,-82.739562,4.0,172,1
x2sLTY57QFvlfmt55mq3sg,Bar Louie - Kirkwood,110 S Kirkwood Rd,Kirkwood,MO,63122,38.58029187,-90.40580455,3.5,327,1
JzUFlsQh5jWG0AHD0V8pIQ,Chubby's Super Subs & Pizza,5023 Bayshore Blvd,Tampa,FL,33611,27.8913753993,-82.4858343601,3.5,111,1
nTPTqC40pXELp3LOrCtXIA,Goldbergs Fine Foods - New Orleans,925 Common St,New Orleans,LA,70112,29.9539999041,-90.0727519444,4.0,142,0
ZMejgg0By-DI2wyQWezBbQ,Ramen Bar,3400 Lancaster Ave,Philadelphia,PA,19104,39.9572977379,-75.1920437233,3.5,343,1
-K0zTgGyxo-AeSkcV0IVaA,Spiro's Restaurant,1054 N Woods Mill Rd,Chesterfield,MO,63017,38.6781756,-90.499149,4.5,158,1
X6ZkbbAwCcz-ML1iihsszw,Craft Street Kitchen Trinity,3216 Little Rd,Trinity,FL,34655,28.204689,-82.66286,4.5,644,1
bYhGhL6eUIVmxnflTw5u8w,Airport Shuttle New Orleans,4220 Howard Ave,New Orleans,LA,70125,29.9598153,-90.0983136,1.5,214,1
P6iHMvttUL4HJ0fXbb_gow,Billy Goat Coffee Café,"3690 N Mt Juliet Rd, Ste 100",Mt. Juliet,TN,37122,36.2215539,-86.515419,4.0,121,1
E1Ip-KoFvwRPjTslL2pDpg,Invitation Homes Tampa,"5310 Cypress Center Dr, Ste 105",Tampa,FL,33609,27.9488649,-82.5340564,2.5,190,1
hlS7wJQ650VrIZ1X0O2iOA,Eagle Diner,739 Street Rd,Warminster,PA,18974,40.2077822,-75.1006712,3.0,131,1
yR_EfNX8NF_JQTo2LURR4g,Dominick's Real Italian,"8330 N Thornydale Rd, Ste 170",Tucson,AZ,85741,32.3576715195,-111.0443798803,4.0,440,1
EPMHuTHu46B123ivRIZ-Xg,Magic Carpet,34th & Walnut St,Philadelphia,PA,19176,39.9528123,-75.1920992,4.0,135,1
_Q3XmBesceFqn9Dk-w6tlA,Artisan Boulanger Patissier,1218 Mifflin St,Philadelphia,PA,19148,39.9264181,-75.1664513,4.5,194,1
f64wvgLjQZEhSck9iYptSw,The R Bar,1431 Royal St,New Orleans,LA,70116,29.9640369511,-90.0595227571,4.0,159,1
13HH552okR9DsjANReVeFQ,BlueFin Restaurant,2820 Dekalb Pike,East Norriton,PA,19401,40.138783,-75.312849,4.5,315,1
QCsVilspu6TxuwZMUTabFQ,Revision Brewing,380 S Rock Blvd,Sparks,NV,89431,39.531055,-119.765909,4.5,176,1
ZQc6EvnfQXtIK-8w-d0N5Q,Mad Rex,"1000 Frankford Ave, Ste 1",Philadelphia,PA,19125,39.96486,-75.13463,3.5,337,0
24naoM4kRu1oQcrWjodYpA,AMC Classic Centro Ybor 10,1600 E 8th Ave,Tampa,FL,33605,27.961061,-82.441488,3.5,118,0
Fr4HGxz8_s8BxY_fZdadzQ,Mitchell Delicatessen,1402 McGavock Pike,Nashville,TN,37216,36.204681,-86.7238969,4.5,177,0
v5nFmEgsJL8Cqk_9obH-QQ,International Medical Group,2960 N Meridian St,Indianapolis,IN,46208,39.809651,-86.158532,1.0,129,1
eXKblEHP3YJYU1Awz08hVw,Tacos Don Memo,270 S 38th St,Philadelphia,PA,19104,39.951988,-75.199123,4.5,200,1
ksFVaF5TatgsVGXk7Yyw9A,Pho 777 Vietnamese Noodle Restaurant,102 E 2nd St,Reno,NV,89501,39.527013839,-119.8115288689,3.5,632,1
4RrwqZwLnRe0Yhkv5_03fQ,Alamo Rent A Car,5405 Airport Service Rd,Tampa,FL,33607,27.963688,-82.534713,3.5,310,1
wo6RAA4c8I5trN331y8SIw,Mandarin Grill,505 E Grant Rd,Tucson,AZ,85705,32.2506597,-110.9630318,3.0,125,1
-iGzevsRYAi990-Lt-iMoQ,US Fries,340 N 4th Ave,Tucson,AZ,85705,32.2260459,-110.965172,3.5,125,0
2BeLHWA5CVN9TiiVkVVxQg,Taco Giro Mexican Grill - W Valencia,2750 W Valencia Rd,Tucson,AZ,85746,32.1343988852,-111.025633627,3.5,103,1
0yOfDyqoJTp6-9qbyroyEw,Fred's Breakfast,13 E Randolph St,New Hope,PA,18938,40.365703,-74.951199,4.0,148,0
rAMlyZQe5eFrdLRVQfY4ZQ,Buffa's Bar & Restaurant,1001 Esplanade Ave,New Orleans,LA,70116,29.9655244,-90.062575102,4.0,444,1
8f5BnHWOn7Igey-TNoY0_Q,The Porch Restaurant at The Lamb,865 W Springfield Rd,Springfield,PA,19064,39.9448974,-75.3478223,3.5,125,0
jW8RwU6gT4v3enWnAWICng,Keke's Breakfast Cafe,"22952 State Rd 54, Ste 510",Lutz,FL,33549,28.1839949,-82.4359409,4.0,126,1
UsO0YVGRKu3PXsauJVkLXg,Macy's,5100 Meadowood Mall Cir,Reno,NV,89502,39.475943,-119.783118,3.0,120,1
ovLgaPIMrx7PDZPrEpTMvg,Mei's World Pizza,2592 E Bearss Ave,Tampa,FL,33613,28.0807642,-82.4318998,4.5,117,1
WfEc--AG2O1f78q3RuERlw,Holler & Dash Biscuit House,"2407 8th Ave S, Ste 105",Nashville,TN,37204,36.1256854,-86.7772199,4.0,122,0
ec0MU8FMDBRM6pLaYbWZBg,MOD Pizza,2227 Sun Vista Dr,Lutz,FL,33559,28.190794,-82.395553,4.0,123,1
QoCTnvts3Uu-M5oCJG7I3A,Jessi's Restaurant,8331 66th St N,Pinellas Park,FL,33781,27.8477143,-82.7281726,4.0,101,0
m3NH0HumRCp4ARx8RBD7IQ,P J Whelihan's Pub & Restaurant - Blue Bell,799 Dekalb Pike,Blue Bell,PA,19422,40.169594,-75.288118,3.0,279,1
uE_39C9Mi51XfZv68M253g,Ashton Cigar Bar,"1522 Walnut St, Fl 2",Philadelphia,PA,19102,39.949424,-75.167122,3.5,215,1
xKiTLjsWMHoeutot6lPZIw,Village Idiot Brewing Company,42 High St,Mount Holly,NJ,08060,39.9941508772,-74.7881163549,4.5,100,1
pG3BViWKznBrEPlbV9wxPA,Bar Louie - Nashville,314 11th Ave S,Nashville,TN,37203,36.153143,-86.78348857,3.0,599,1
ttkw8_b7CVOf6hM5bzTLNw,Crazy Town Nashville,308 Broadway,Nashville,TN,37201,36.1615095093,-86.7765364154,3.0,133,0
mxZMSFUamk7SIf5ndCLAxA,Pali Wine,116 E Yanonali St,Santa Barbara,CA,93101,34.415395,-119.690058,4.0,142,1
OxBZqeYH5xuusEPp9ml7-g,El Guero Canelo,5201 S 12th Ave,Tucson,AZ,85706,32.1575975,-110.9771386,4.0,636,1
6RDGvdukSq3YHPYvG8sIEQ,Brown Butter Southern Kitchen & Bar,"231 N Carollton Ave, Ste C",New Orleans,LA,70119,29.976322,-90.099639,4.0,401,1
LFUndZacUo5keXKHNPk-vQ,Rosa's Mexican Food Restaurant,"1750 E Fort Lowell, Ste 164",Tucson,AZ,85719,32.2642107,-110.9457997,3.5,342,1
IrUhsjQZtSB-TjxqtXaKkg,The Kitchen Sink,626 N 6th St,St Louis,MO,63108,38.6308456857,-90.1889685289,3.0,149,0
x1ukXOcMHlzKmTmfNIjyLA,Asiatic Street Food & Noodle Bar,"1600 E 8th Ave, Ste D101",Tampa,FL,33605,27.960632,-82.441623,4.0,323,1
jKHlvwq40sghrR89pF_3Tw,Jeni's Splendid Ice Creams,389 N Euclid Ave,Saint Louis,MO,63108,38.6481278,-90.2612551,4.5,321,1
E5FcXykvHP9geCmhxv8szA,Fran's Pub,116 S Main St,New Hope,PA,18938,40.3607162,-74.9498066,2.5,235,1
S_EYSW6QoJh8cKlj8BhfFA,Anthony's Coal Fired Pizza,1912 W Brandon Blvd,Brandon,FL,33511,27.9381795358,-82.3157958846,4.0,241,1
pOhfM0OlLdG-XcKaGk-LYg,Main Street Burger,1615 N Main St,Meridian,ID,83642,43.6184629,-116.3919133,4.0,143,1
73esU0u3hYIPPqCScAA2HQ,Centennial Park,2500 W End Ave,Nashville,TN,37203,36.149064,-86.811993,4.5,210,1
poUBW6Ssag7DeRzecF1ojw,Kao Thai Kitchen,7199 66th St N,Pinellas Park,FL,33781,27.8377046,-82.7280224,4.5,149,1
n4PdRDOWgBOhke7AqCW3FA,Shake Shack,60 North Euclid,St. Louis,MO,63108,38.641616,-90.261793,3.5,359,1
wUZXm4KN2wIqlfkvXVZXUw,Crema Coffee Roasters,15 Hermitage Ave,Nashville,TN,37210,36.1568332,-86.769701,4.5,998,1
ZBL2sGJCI-oHHjwo17WWng,AC Hotel by Marriott New Orleans French Quarter,221 Carondelet St,New Orleans,LA,70130,29.9524157,-90.071361,3.5,177,1
ymi8Cb93TUSN6wwlvMjV6A,Smokey Bones,136 Brandon Town Center Dr,Brandon,FL,33511,27.9383213,-82.3251522216,3.0,230,1
z1MnC6bLjDjJqcUwCafRJQ,Newman's Deli,20 California Ave,Reno,NV,89509,39.5200396,-119.8107996,4.0,164,0
ju3OnrqQ5mprsnTghq1uZw,Riviera Maya Mexican Restaurant,9770 Crosspoint Blvd,Indianapolis,IN,46256,39.9295406,-86.0295025,3.5,225,1
Kt7jsrE-KmcW30IS2aNpeA,"Chicago's Pizza With A Twist - Reno, NV",2900 Clear Acre Ln,Reno,NV,89512,39.5580721106,-119.7909123684,4.5,143,1
oGDGlUbOjHxmmCh8ZYcDCg,The Lark,"131 Anacapa St, Ste A",Santa Barbara,CA,93101,34.4148777,-119.690279,4.0,1520,1
V2cQOeZwPBmjpln6_p1Ygw,Stearns Wharf,217 Starnms Wharf,Santa Barbara,CA,93190,34.4100137734,-119.6855497819,4.0,297,1
E97-OARDmnrwzdM0BR8eMA,Chuy's,10325 N Michigan Rd.,Carmel,IN,46032,39.9360204,-86.2339838,4.0,170,1
vHr8qhM4CXYB3Ol_9yS6QQ,Sushi Pier,"1290 E Plumb Ln, Ste J",Reno,NV,89502,39.5044132847,-119.783673119,4.0,979,1
Hj44PIrCtv61ETVclzLMwg,Jeannine's American Bakery Restaurant,15 E Figueroa St,Santa Barbara,CA,93101,34.4230808,-119.7028282,4.0,380,0
_H30_Y_YcQQ7kbix9a1KfQ,Gus's World Famous Fried Chicken,7434 Manchester Rd,Maplewood,MO,63143,38.6121287058,-90.3211099461,4.0,359,1
KRpi9ZJHt65jY4DfwI7VrA,Robata Maplewood,7260 Manchester Rd,Maplewood,MO,63143,38.6137743341,-90.3150105724,3.5,210,1
0nMdZRSeaABr2PRbs_cpiw,China Cottage Restaurant,1795 Gallatin Pike N,Madison,TN,37115,36.2968418235,-86.7010367251,4.0,156,1
Tf8KLsWjf24FiGcZh6FD-Q,Rawk Star Cafe,"4011 Tampa Rd, Ste 11",Oldsmar,FL,34677,28.0375497,-82.6581055,5.0,168,1
0S5nk5wxqUoXNGZ0_DryXw,Bienvenue,467 Hickory Ave,Harahan,LA,70123,29.9432428,-90.1977059,4.0,110,1
3wq2chcgOs5D7f6KHcINmg,Yummy Sushi & Hibachi,6100 Hamburg St,New Orleans,LA,70122,30.020258,-90.076769,4.0,104,1
r2YRyz3zTrJpyw2h0nrxiw,Joe Bob's Chicken Joint,"670 E Prater Way, Ste 101",Sparks,NV,89431,39.5423664413,-119.7344902911,3.0,131,1
ez3QHFQDCbdhzBtU58dbKg,Edessa Restaurant Kurdish Turkish Cuisine,3802 Nolensville Pike,Nashville,TN,37211,36.0879321,-86.7306157,5.0,198,1
bmz4siaejdjs4_yS_mYW4A,Cool Springs Brewery,"600A Frazier Dr, Ste 135",Franklin,TN,37067,35.945213,-86.821891,3.5,264,1
zZ46gP_VbzU9l9cNAQJpCQ,Oceanic Oriental Supermarket,1609 N Tampa St,Tampa,FL,33602,27.9576752063,-82.4605499502,4.0,121,1
1ir6Kjb-d4Vg_dViVvR-rQ,Carlo's Bakery,2101 Walnut St,Philadelphia,PA,19103,39.95093,-75.1758708,3.0,177,1
HH9x7WcNQR3cnwkHo_YL0w,Mimi Blue Meatballs,870 Massachusetts Ave,Indianapolis,IN,46202,39.779627,-86.142661,4.0,567,1
zwGzwkVeYXE-tRisb8if7A,Smokin Thighs - Wedgewood,611 Wedgewood Ave,Nashville,TN,37203,36.1331647,-86.7699562,4.0,544,1
a8Dd8uNFxfQjCSKpkP34HQ,Queen Village Animal Hospital,323 Bainbridge St,Philadelphia,PA,19147,39.9407799,-75.1485494,4.0,124,1
JS5WW6jopp6f0zn0KOZH2Q,Sierra Auto Spa,"9530 S McCarran Blvd, Ste B",Reno,NV,89523,39.51309,-119.858746,3.0,100,1
MbgRp2-3vkr8-td9DKxYzQ,Sausage Deli,754 E Grant Rd,Tucson,AZ,85719,32.250103,-110.960107,4.0,198,1
VZFQS0SXzXPuxISbAgIVBA,'feine,812 Fayette St,Conshohocken,PA,19428,40.0801941459,-75.3002773494,4.5,166,1
IJ8Typa6BGckVuh1jhjy4w,The Spa Terme Di Aroma,32 N 3rd St,Philadelphia,PA,19106,39.9511292,-75.1455831,4.5,197,1
lQ58_4SzdETRSw0h8tilhA,Uncle Bill's Pancake & Dinner House,3427 S Kingshighway Blvd,Saint Louis,MO,63139,38.5968992,-90.271211,3.5,361,1
F9BES1HFD3BkIudUe4oTgg,Pima Air & Space Museum,6000 E Valencia Rd,Tucson,AZ,85756,32.1394160936,-110.8656293082,4.5,350,1
wvD7TOuE-qUhkyXoi8K8hA,Taqueria El Bajio,129 N Milpas St,Santa Barbara,CA,93103,34.4232378877,-119.6813092,4.0,246,1
XC30E7D4gfIrLmh4d4prSw,The Metropolitan American Diner & Bar,750 Upper State Rd,North Wales,PA,19454,40.2387369,-75.2353721,4.0,506,1
9W06GSzBeIhJyeImD_aNhA,O'Cleary's,"1330 Scheels Dr, Ste 250",Sparks,NV,89434,39.5317325901,-119.7213401645,3.0,273,0
W-fBHvwfkPuyojEbOQTHOQ,Cycle Brewing,534 Central Ave,Saint Petersburg,FL,33701,27.77106169,-82.6409144,4.0,242,1
QUwn9cGTefrWSF5Qy0zhOw,Amy's Omelette House,637 High St,Burlington,NJ,08016,40.071646,-74.855052,4.0,188,1
eaDZlSuVS0EY67Ke6pRP6Q,Penang,117 N 10th St,Philadelphia,PA,19107,39.954044,-75.15598,3.5,1112,1
trwHwsXOVV-ZmF-MtP98BA,High Street Philadelphia,101 S 9th St,Philadelphia,PA,19107,39.949579,-75.1553831,4.0,807,1
UJPWeNYm4VrkvcAAbqAv_A,Seafood Sensation,"2719 Jefferson St, Ste E",Nashville,TN,37208,36.1673245321,-86.8201071024,4.0,200,1
94FTPSStGmcBwaVgQJi8uQ,David & Sons - 322 BBQ,1 S Main St,Mullica Hill,NJ,08062,39.7352821,-75.2243414,3.5,111,1
7Vy1FHvdD22nzEB6zfaUFQ,Another Broken Egg Cafe,9435 N Meridian St,Indianapolis,IN,46260,39.925216,-86.156117,4.0,503,1
ZJKGcR7J0n1DGbLqt1N5Vw,Bub's Burgers & Ice Cream,210 W Main St,Carmel,IN,46032,39.978805,-86.1300119,4.0,522,1
suVYxo-uPNTlpkJ7w7J-wg,Louisiana Pizza Kitchen Uptown,615 S Carrollton Ave,New Orleans,LA,70118,29.9431562,-90.1335395,3.5,157,1
P6_0KGFZO3K0qHSfhUuINg,Bernie's Restaurant & Bar - Hatboro,58 S York Rd,Hatboro,PA,19040,40.1757653,-75.1069665,3.0,201,1
JT42WVnP5XuaQqfdSqb5LQ,House of Cheung,2460 E 71st St,Indianapolis,IN,46220,39.8836348,-86.1209217,4.5,154,1
IFbkXHKk6WYrRb-g_wAFeQ,Oishi,5800 34th St N,Saint Petersburg,FL,33714,27.825,-82.6799983,4.0,133,1
rOpmAjGAex-oboy3IfAncQ,Horse and Jockey British Pub & Restaurant,1155 Pasadena Ave S,South Pasadena,FL,33707,27.7585368,-82.7371187,4.0,158,1
E3WUDYEvCVMplIFMgeN1xw,Cajun Kitchen Cafe,901 Chapala St,Santa Barbara,CA,93101,34.419398,-119.702048,4.0,519,1
szdH65mQam5lNncCfJLUwA,13th Street Gourmet Pizza,209 S 13th St,Philadelphia,PA,19107,39.9483979236,-75.162245775,2.5,154,0
nzMsAREnsFlsCHsBUwL2SQ,Ho Sai Gai Restaurant,1000 Race St,Philadelphia,PA,19107,39.9552459,-75.1561342,4.0,202,1
pcRQ_Ctv-g4upVQH2qwytw,La Parada Restaurant,301 Kietzke Ln,Reno,NV,89502,39.5261103,-119.7895354,4.0,130,1
Ey0t4U6yqtxCeMaGPf7GcA,Brummis - the German Taste,3130 State St,Santa Barbara,CA,93105,34.440696,-119.732304,4.5,111,0
yUbxTKb2Od9xg9wrAIeC6w,Sahm's Ale House,"1435 E 86th St, Unit A",Indianapolis,IN,46240,39.911904,-86.1361078,4.0,131,1
AL89lQXFfE0HpbTvpxuSkA,Bob's Steak & Chop House,2727 W Club Dr,Tucson,AZ,85742,32.357854,-111.0255313,4.0,112,1
RMYjaB5krFGCtlOLf5TBwQ,German Knodle,951 Central Ave,Saint Petersburg,FL,33706,27.7713384,-82.6479855,5.0,193,1
_uDhUdcNBtgiOXPGPWunoQ,Taco Fish,4841 S 12th Ave,Tucson,AZ,85714,32.1641327,-110.9770455,4.5,150,1
pP4q0Mym-qt20nRqTKbzhQ,Morton's The Steakhouse,1411 Walnut St,Philadelphia,PA,19102,39.949603,-75.1649701595,3.5,149,0
RY1SyuBjoJGHslhWLxNBBQ,Hilton St. Louis Frontenac,1335 S Lindbergh Blvd,Saint Louis,MO,63131,38.6341961284,-90.4071659606,3.0,106,1
nQeu2F4xOiKoXIp-9engUw,5th & Taylor,1411 5th Ave N,Nashville,TN,37208,36.1785965,-86.7905974,4.5,1088,1
oKPOwM0RQXCfNdM_s8TFhw,The Vault,300 Farnsworth Ave,Bordentown,NJ,08505,40.1461632956,-74.7115764277,4.0,138,0
OY2_L2zFgBfOTCQFP7FXrg,Stax,2800 Opryland Dr,Nashville,TN,37214,36.2114925518,-86.6943552772,3.0,105,1
gjCxTVItFxk46rCZ-YaiFA,South Coast Deli- Chapala,1436 Chapala St,Santa Barbara,CA,93101,34.425067369,-119.7091551212,4.5,340,1
lVI4VnGah8Klp43wbLat6g,Bertucci's Italian Restaurant,860 Bethlehem Pike,North Wales,PA,19454,40.2370456,-75.2422089,2.5,104,1
5_YOvM4USZ2FSfYEvaHhOQ,Toninos Pizza & Pasta,235 Lancaster Ave,Malvern,PA,19355,40.0404448,-75.54214,4.5,112,1
KAR-LpoXQc-awbriXyoxPQ,Opry Mills,433 Opry Mills Dr,Nashville,TN,37214,36.2034653,-86.6934354,3.5,333,1
RFYlmTjgwhOsm7qJwW1G9w,Alfa American Tavern,1709 Walnut St,Philadelphia,PA,19103,39.9501041044,-75.1695114255,3.5,148,0
_kJzi_k6LwtE3phJFxNOzA,Sorriso Italiano,901 Embarcadero Del Mar,Isla Vista,CA,93117,34.4128503926,-119.8571275625,4.0,137,0
2CqQ3Tnvj7h0rw84WEEjMw,Killer B's BBQ Bar and Grill,718 State St,Santa Barbara,CA,93101,34.4192106,-119.6984337,4.0,191,0
XDmQBZiQCfaDhoWAbTVxQA,Carlino's Market,128 W Market St,West Chester,PA,19382,39.9585007,-75.606411,4.0,136,1
Kfia_CYkBC_D6VEKtSrFsg,Chickie's & Pete's,234 Rowan Blvd,Glassboro,NJ,08028,39.7057964662,-75.1138846843,3.0,101,1
FxJKgdvzwdkYXO2apXBcNA,SOHO Juice Co.,2200 4th St N,Saint Petersburg,FL,33704,27.7922927,-82.6388803,4.0,137,1
YZ7aP01qExBoF4f0LWnNEw,Hana Sushi House,"151 Adams Ln, Ste 7",Mount Juliet,TN,37122,36.1699042933,-86.5175724312,4.0,111,0
i_sAh-ylmOwCQmqRmXox8g,Monsú,901 Christian St,Philadelphia,PA,19147,39.9391381,-75.1579072,4.0,309,0
ttxw2Sk6l0hDvyO_izGz2Q,R Bistro,888 Massachusetts Ave,Indianapolis,IN,46204,39.7796333,-86.1425386,3.5,100,0
-UEeCTgxud4OGWshX4x-jw,Drip Affogato Bar,703 Carondelet St,New Orleans,LA,70113,29.9475856,-90.0727971,4.5,411,1
ySSOZ_fz7wMhfjhWKzdR-w,Johnny Rockets,2500 E Second St,Reno,NV,89595,39.5228351525,-119.7781323604,4.0,520,1
M-oi_kkI0AhbR-xqR5yrNA,Jimbo's Pit Bar B-Q - Tampa,4103 W Kennedy Blvd,Tampa,FL,33609,27.9451443753,-82.5122690797,3.5,267,1
RCpFAdBZJM9ucpVMcYXiVA,Gummlai Thai,1170 Easton Rd,Abington,PA,19001,40.1237197,-75.1331417,4.5,168,1
jwpZzqoPFLuHE-FwLp41cQ,Bistro Di Marino,492 Haddon Ave,Collingswood,NJ,08108,39.9181905,-75.0753279,4.0,285,1
z2FRDJSxRR3mmC9syR25xA,The Parthenon,2500 West End Ave,Nashville,TN,37203,36.1496746996,-86.813348713,4.0,464,1
yTTxelcMvMoJvBoVoNkuzA,Urban Creamery,689 Central Ave,Saint Petersburg,FL,33701,27.7714559,-82.6435122,4.0,193,1
c4ecEZS7BEmPhgSqzVz9tA,Cantina Avenida,7402 Germantown Ave,Philadelphia,PA,19119,40.062681,-75.193195,3.5,101,0
eeJREj8AQeQqX-uQQoSrCA,Sierra Tap House,253 W 1st St,Reno,NV,89501,39.5250001,-119.8164266,4.0,116,1
rQBe1BjSML5lLP__TWG6Pg,Beautiful Nails,1107 S Big Bend Blvd,Saint Louis,MO,63117,38.6329272,-90.3191459,3.5,109,1
-l3G5kG-LuiKe6Eqy3KKZw,Sids Garage,"3525 E Longwing Ln, Ste 180",Meridian,ID,83646,43.6215412544,-116.3502899644,4.0,194,1
Nbht3URjeV94507do0goEw,Pressed,"651 Paseo Nuevo, Ste 305",Santa Barbara,CA,93101,34.4189924525,-119.7000565007,4.5,111,1
PfgCUXFBWtXZ15ss4F4Qqg,Lithia Chrysler Jeep of Reno,"1050 E Plumb Ln, Ste 100",Reno,NV,89502,39.504796,-119.78774,3.0,230,1
